port,portLabel,coordinates,lon,lat,country,countryLabel
http://www.wikidata.org/entity/Q16352698,Harbour of Himara,Point(19.741666666 40.1),19.741666666,40.1,http://www.wikidata.org/entity/Q222,Albania
http://www.wikidata.org/entity/Q3303198,Port of Durrës,Point(19.45417 41.30833),19.45417,41.30833,http://www.wikidata.org/entity/Q222,Albania
http://www.wikidata.org/entity/Q7231260,Port of Sarandë,Point(20.00305556 39.87083333),20.00305556,39.87083333,http://www.wikidata.org/entity/Q222,Albania
http://www.wikidata.org/entity/Q2532208,Port of Shëngjin,Point(19.59305556 41.80555556),19.59305556,41.80555556,http://www.wikidata.org/entity/Q222,Albania
http://www.wikidata.org/entity/Q7231302,Port of Vlores,Point(19.48333 40.45),19.48333,40.45,http://www.wikidata.org/entity/Q222,Albania
http://www.wikidata.org/entity/Q111387382,Arzew El Djedid,Point(-0.25 35.816666666),-0.25,35.816666666,http://www.wikidata.org/entity/Q262,Algeria
http://www.wikidata.org/entity/Q111387379,Collo,Point(6.583333333 37.0),6.583333333,37.0,http://www.wikidata.org/entity/Q262,Algeria
http://www.wikidata.org/entity/Q54874731,El Hamdania Port,Point(2.259166666 36.620833333),2.259166666,36.620833333,http://www.wikidata.org/entity/Q262,Algeria
http://www.wikidata.org/entity/Q111387285,Jijel,Point(5.783333333 36.833333333),5.783333333,36.833333333,http://www.wikidata.org/entity/Q262,Algeria
http://www.wikidata.org/entity/Q111387383,Mers El Kebir,Point(-0.7 35.733333333),-0.7,35.733333333,http://www.wikidata.org/entity/Q262,Algeria
http://www.wikidata.org/entity/Q111386640,Port Methanier,Point(6.95 36.883333333),6.95,36.883333333,http://www.wikidata.org/entity/Q262,Algeria
http://www.wikidata.org/entity/Q23846119,Port of Algiers,Point(3.066666666 36.766666666),3.066666666,36.766666666,http://www.wikidata.org/entity/Q262,Algeria
http://www.wikidata.org/entity/Q111387376,Port of Annaba,Point(7.766666666 36.916666666),7.766666666,36.916666666,http://www.wikidata.org/entity/Q262,Algeria
http://www.wikidata.org/entity/Q111387381,Port of Arzew,Point(-0.3 35.85),-0.3,35.85,http://www.wikidata.org/entity/Q262,Algeria
http://www.wikidata.org/entity/Q16670726,Port of Bejaia,Point(5.085555555 36.751111111),5.085555555,36.751111111,http://www.wikidata.org/entity/Q262,Algeria
http://www.wikidata.org/entity/Q111387290,Port of Béni Saf,Point(-1.383333333 35.3),-1.383333333,35.3,http://www.wikidata.org/entity/Q262,Algeria
http://www.wikidata.org/entity/Q28716114,Port of Dellys,Point(3.9169117 36.9152614),3.9169117,36.9152614,http://www.wikidata.org/entity/Q262,Algeria
http://www.wikidata.org/entity/Q25389341,Port of Djen Djen,Point(5.888055555 36.818055555),5.888055555,36.818055555,http://www.wikidata.org/entity/Q262,Algeria
http://www.wikidata.org/entity/Q23846116,Port of Ghazaouet,Point(-1.866666666 35.1),-1.866666666,35.1,http://www.wikidata.org/entity/Q262,Algeria
http://www.wikidata.org/entity/Q125123662,Port of Marsa Ben M'Hidi,Point(-2.197266 35.086861),-2.197266,35.086861,http://www.wikidata.org/entity/Q262,Algeria
http://www.wikidata.org/entity/Q111387380,Port of Mostaganem,Point(0.083333333 35.933333333),0.083333333,35.933333333,http://www.wikidata.org/entity/Q262,Algeria
http://www.wikidata.org/entity/Q7231303,Port of Oran,Point(-0.65 35.7167),-0.65,35.7167,http://www.wikidata.org/entity/Q262,Algeria
http://www.wikidata.org/entity/Q23846114,Port of Skikda,Point(6.916666666 36.883333333),6.916666666,36.883333333,http://www.wikidata.org/entity/Q262,Algeria
http://www.wikidata.org/entity/Q111387378,Tenes,Point(1.316666666 36.533333333),1.316666666,36.533333333,http://www.wikidata.org/entity/Q262,Algeria
http://www.wikidata.org/entity/Q111386621,Dalia Terminal,Point(11.766666666 -7.683333333),11.766666666,-7.683333333,http://www.wikidata.org/entity/Q916,Angola
http://www.wikidata.org/entity/Q111386550,Estrela Oil Field,Point(12.4 -6.45),12.4,-6.45,http://www.wikidata.org/entity/Q916,Angola
http://www.wikidata.org/entity/Q111386597,Fútila Oil Terminal,Point(12.183333333 -5.45),12.183333333,-5.45,http://www.wikidata.org/entity/Q916,Angola
http://www.wikidata.org/entity/Q111386608,Girassol Terminal,Point(11.683333333 -7.65),11.683333333,-7.65,http://www.wikidata.org/entity/Q916,Angola
http://www.wikidata.org/entity/Q111386622,Greater Plutonio Terminal,Point(12.1 -7.833333333),12.1,-7.833333333,http://www.wikidata.org/entity/Q916,Angola
http://www.wikidata.org/entity/Q111386619,Kizomba A Terminal,Point(11.05 -6.316666666),11.05,-6.316666666,http://www.wikidata.org/entity/Q916,Angola
http://www.wikidata.org/entity/Q111386618,Kizomba B Terminal,Point(11.15 -6.35),11.15,-6.35,http://www.wikidata.org/entity/Q916,Angola
http://www.wikidata.org/entity/Q111386620,Kizomba C Terminal,Point(11.283333333 -6.316666666),11.283333333,-6.316666666,http://www.wikidata.org/entity/Q916,Angola
http://www.wikidata.org/entity/Q111386598,Kuito Oil Field,Point(11.5 -5.466666666),11.5,-5.466666666,http://www.wikidata.org/entity/Q916,Angola
http://www.wikidata.org/entity/Q111387557,Malongo Oil Terminal,Point(12.083333333 -5.433333333),12.083333333,-5.433333333,http://www.wikidata.org/entity/Q916,Angola
http://www.wikidata.org/entity/Q111387564,Palanca Terminal,Point(12.4 -6.95),12.4,-6.95,http://www.wikidata.org/entity/Q916,Angola
http://www.wikidata.org/entity/Q111387549,Port of Ambriz,Point(13.1 -7.833333333),13.1,-7.833333333,http://www.wikidata.org/entity/Q916,Angola
http://www.wikidata.org/entity/Q65171184,Port of Cabinda,Point(12.193 -5.550194444),12.193,-5.550194444,http://www.wikidata.org/entity/Q916,Angola
http://www.wikidata.org/entity/Q106097210,Port of Cuanza Sul,Point(13.73525 -10.748944444),13.73525,-10.748944444,http://www.wikidata.org/entity/Q916,Angola
http://www.wikidata.org/entity/Q59537856,Port of Lobito,Point(13.5475 -12.345),13.5475,-12.345,http://www.wikidata.org/entity/Q916,Angola
http://www.wikidata.org/entity/Q21420616,Port of Luanda,Point(13.242194444 -8.801861111),13.242194444,-8.801861111,http://www.wikidata.org/entity/Q916,Angola
http://www.wikidata.org/entity/Q21411123,Port of Namibe,Point(12.133083333 -15.19475),12.133083333,-15.19475,http://www.wikidata.org/entity/Q916,Angola
http://www.wikidata.org/entity/Q65173734,Port of Soyo,Point(12.329833333 -6.115472222),12.329833333,-6.115472222,http://www.wikidata.org/entity/Q916,Angola
http://www.wikidata.org/entity/Q111386730,Sumbe,Point(13.833333333 -11.2),13.833333333,-11.2,http://www.wikidata.org/entity/Q916,Angola
http://www.wikidata.org/entity/Q111386525,Takula Terminal,Point(11.783333333 -5.216666666),11.783333333,-5.216666666,http://www.wikidata.org/entity/Q916,Angola
http://www.wikidata.org/entity/Q36262,Saint John's,Point(-61.844722222 17.121111111),-61.844722222,17.121111111,http://www.wikidata.org/entity/Q781,Antigua and Barbuda
http://www.wikidata.org/entity/Q111386683,St Johns,Point(-61.85 17.116666666),-61.85,17.116666666,http://www.wikidata.org/entity/Q781,Antigua and Barbuda
http://www.wikidata.org/entity/Q124128789,Q124128789,Point(-62.280038358 -38.790490446),-62.280038358,-38.790490446,http://www.wikidata.org/entity/Q414,Argentina
http://www.wikidata.org/entity/Q6092258,Q6092258,Point(-58.222444444 -32.487555555),-58.222444444,-32.487555555,http://www.wikidata.org/entity/Q414,Argentina
http://www.wikidata.org/entity/Q6092261,Q6092261,Point(-58.001944444 -31.403055555),-58.001944444,-31.403055555,http://www.wikidata.org/entity/Q414,Argentina
http://www.wikidata.org/entity/Q111387453,Campana,Point(-58.966666666 -34.15),-58.966666666,-34.15,http://www.wikidata.org/entity/Q414,Argentina
http://www.wikidata.org/entity/Q111386752,Comodoro Rivadavia,Point(-67.466666666 -45.866666666),-67.466666666,-45.866666666,http://www.wikidata.org/entity/Q414,Argentina
http://www.wikidata.org/entity/Q111386483,Concepcion del Uruguay,Point(-58.233333333 -32.483333333),-58.233333333,-32.483333333,http://www.wikidata.org/entity/Q414,Argentina
http://www.wikidata.org/entity/Q111387457,Concordia,Point(-58.033333333 -31.4),-58.033333333,-31.4,http://www.wikidata.org/entity/Q414,Argentina
http://www.wikidata.org/entity/Q111387446,Diamante,Point(-60.65 -32.066666666),-60.65,-32.066666666,http://www.wikidata.org/entity/Q414,Argentina
http://www.wikidata.org/entity/Q21573712,Dock Sud Port,Point(-58.334204421 -34.65299145),-58.334204421,-34.65299145,http://www.wikidata.org/entity/Q414,Argentina
http://www.wikidata.org/entity/Q111387438,Mar del Plata,Point(-57.533333333 -38.033333333),-57.533333333,-38.033333333,http://www.wikidata.org/entity/Q414,Argentina
http://www.wikidata.org/entity/Q111386811,Port of Bahia Blanca,Point(-62.266666666 -38.783333333),-62.266666666,-38.783333333,http://www.wikidata.org/entity/Q414,Argentina
http://www.wikidata.org/entity/Q7231100,Port of Buenos Aires,Point(-58.371389 -34.599167),-58.371389,-34.599167,http://www.wikidata.org/entity/Q414,Argentina
http://www.wikidata.org/entity/Q9064565,Port of La Plata,Point(-57.866666666 -34.85),-57.866666666,-34.85,http://www.wikidata.org/entity/Q414,Argentina
http://www.wikidata.org/entity/Q111386816,Port of Puerto Madryn,Point(-65.033333333 -42.766666666),-65.033333333,-42.766666666,http://www.wikidata.org/entity/Q414,Argentina
http://www.wikidata.org/entity/Q5307927,Port of Rosario,Point(-60.61833333 -32.97055556),-60.61833333,-32.97055556,http://www.wikidata.org/entity/Q414,Argentina
http://www.wikidata.org/entity/Q5390809,Port of San Nicolas,Point(-60.17083333 -33.355),-60.17083333,-33.355,http://www.wikidata.org/entity/Q414,Argentina
http://www.wikidata.org/entity/Q111386810,Puerto Belgrano,Point(-62.1 -38.883333333),-62.1,-38.883333333,http://www.wikidata.org/entity/Q414,Argentina
http://www.wikidata.org/entity/Q111386754,Puerto Deseado,Point(-65.9 -47.75),-65.9,-47.75,http://www.wikidata.org/entity/Q414,Argentina
http://www.wikidata.org/entity/Q111386817,Puerto Gallegos,Point(-68.966666666 -51.616666666),-68.966666666,-51.616666666,http://www.wikidata.org/entity/Q414,Argentina
http://www.wikidata.org/entity/Q111386814,Puerto Galvan,Point(-62.3 -38.783333333),-62.3,-38.783333333,http://www.wikidata.org/entity/Q414,Argentina
http://www.wikidata.org/entity/Q111386482,Puerto Ibicuy,Point(-59.1784 -33.75644),-59.1784,-33.75644,http://www.wikidata.org/entity/Q414,Argentina
http://www.wikidata.org/entity/Q111386812,Puerto Ingeniero White,Point(-62.266666666 -38.8),-62.266666666,-38.8,http://www.wikidata.org/entity/Q414,Argentina
http://www.wikidata.org/entity/Q781553,Puerto Madero,Point(-58.364722222 -34.611944444),-58.364722222,-34.611944444,http://www.wikidata.org/entity/Q414,Argentina
http://www.wikidata.org/entity/Q6092150,"Puerto Nuevo, Buenos Aires",Point(-58.368611111 -34.576388888),-58.368611111,-34.576388888,http://www.wikidata.org/entity/Q414,Argentina
http://www.wikidata.org/entity/Q111386486,Puerto Rosales,Point(-62.066666666 -38.933333333),-62.066666666,-38.933333333,http://www.wikidata.org/entity/Q414,Argentina
http://www.wikidata.org/entity/Q21828776,Puerto San Fernando,Point(-58.55 -34.433333333),-58.55,-34.433333333,http://www.wikidata.org/entity/Q414,Argentina
http://www.wikidata.org/entity/Q111386818,Puerto San Julian,Point(-67.7 -49.316666666),-67.7,-49.316666666,http://www.wikidata.org/entity/Q414,Argentina
http://www.wikidata.org/entity/Q111387447,Puerto San Martin,Point(-60.733333333 -32.716666666),-60.733333333,-32.716666666,http://www.wikidata.org/entity/Q414,Argentina
http://www.wikidata.org/entity/Q111386484,Quequen,Point(-58.7 -38.583333333),-58.7,-38.583333333,http://www.wikidata.org/entity/Q414,Argentina
http://www.wikidata.org/entity/Q111387450,Ramallo,Point(-60.016666666 -33.483333333),-60.016666666,-33.483333333,http://www.wikidata.org/entity/Q414,Argentina
http://www.wikidata.org/entity/Q111386815,San Blas,Point(-62.233333333 -40.566666666),-62.233333333,-40.566666666,http://www.wikidata.org/entity/Q414,Argentina
http://www.wikidata.org/entity/Q111386516,San Lorenzo,Point(-60.733333333 -32.75),-60.733333333,-32.75,http://www.wikidata.org/entity/Q414,Argentina
http://www.wikidata.org/entity/Q111386558,San Sebastian Bay,Point(-68.5 -53.166666666),-68.5,-53.166666666,http://www.wikidata.org/entity/Q414,Argentina
http://www.wikidata.org/entity/Q111386500,Santa Fe,Point(-60.7 -31.65),-60.7,-31.65,http://www.wikidata.org/entity/Q414,Argentina
http://www.wikidata.org/entity/Q111386819,Ushuaia,Point(-68.3 -54.816666666),-68.3,-54.816666666,http://www.wikidata.org/entity/Q414,Argentina
http://www.wikidata.org/entity/Q111386559,Villa Constitucion,Point(-60.333333333 -33.3),-60.333333333,-33.3,http://www.wikidata.org/entity/Q414,Argentina
http://www.wikidata.org/entity/Q111387452,Zarate,Point(-59.033333333 -34.083333333),-59.033333333,-34.083333333,http://www.wikidata.org/entity/Q414,Argentina
http://www.wikidata.org/entity/Q21972949,Port of Oranjestad,Point(-70.05 12.516666666),-70.05,12.516666666,http://www.wikidata.org/entity/Q21203,Aruba
http://www.wikidata.org/entity/Q4883115,Bell Bay,Point(146.866666666 -41.116666666),146.866666666,-41.116666666,http://www.wikidata.org/entity/Q408,Australia
http://www.wikidata.org/entity/Q111386778,Cairns,Point(145.783333333 -16.916666666),145.783333333,-16.916666666,http://www.wikidata.org/entity/Q408,Australia
http://www.wikidata.org/entity/Q111386672,Cape Flattery Harbor,Point(145.35 -14.95),145.35,-14.95,http://www.wikidata.org/entity/Q408,Australia
http://www.wikidata.org/entity/Q5034891,Cape Lambert,Point(117.18055556 -20.59277778),117.18055556,-20.59277778,http://www.wikidata.org/entity/Q408,Australia
http://www.wikidata.org/entity/Q21971711,Devonport Port,Point(146.36627 -41.17999),146.36627,-41.17999,http://www.wikidata.org/entity/Q408,Australia
http://www.wikidata.org/entity/Q111387497,Flying Fish Cove,Point(105.7 -10.416666666),105.7,-10.416666666,http://www.wikidata.org/entity/Q408,Australia
http://www.wikidata.org/entity/Q5501488,Fremantle Harbour,Point(115.74543 -32.045956),115.74543,-32.045956,http://www.wikidata.org/entity/Q408,Australia
http://www.wikidata.org/entity/Q111386783,Hay Point,Point(149.2931 -21.2765),149.2931,-21.2765,http://www.wikidata.org/entity/Q408,Australia
http://www.wikidata.org/entity/Q21971719,Kangaroo Island Port,Point(137.94189 -35.71702),137.94189,-35.71702,http://www.wikidata.org/entity/Q408,Australia
http://www.wikidata.org/entity/Q111386779,Lucinda,Point(146.386 -18.5207),146.386,-18.5207,http://www.wikidata.org/entity/Q408,Australia
http://www.wikidata.org/entity/Q21971718,Lucky Bay Port,Point(137.03968 -33.70644),137.03968,-33.70644,http://www.wikidata.org/entity/Q408,Australia
http://www.wikidata.org/entity/Q111386780,Mackay,Point(149.2264 -21.1059),149.2264,-21.1059,http://www.wikidata.org/entity/Q408,Australia
http://www.wikidata.org/entity/Q111386781,Mourilyan Harbour,Point(146.133333333 -17.6),146.133333333,-17.6,http://www.wikidata.org/entity/Q408,Australia
http://www.wikidata.org/entity/Q111386782,Port Alma,Point(150.85 -23.583333333),150.85,-23.583333333,http://www.wikidata.org/entity/Q408,Australia
http://www.wikidata.org/entity/Q7230511,Port Bonython,Point(137.76667 -33.01667),137.76667,-33.01667,http://www.wikidata.org/entity/Q408,Australia
http://www.wikidata.org/entity/Q7230511,Port Bonython,Point(137.76388889 -32.99166667),137.76388889,-32.99166667,http://www.wikidata.org/entity/Q408,Australia
http://www.wikidata.org/entity/Q7230513,Port Botany,Point(151.215 -33.97),151.215,-33.97,http://www.wikidata.org/entity/Q408,Australia
http://www.wikidata.org/entity/Q22330172,Port Darwin,Point(130.848333333 -12.470833333),130.848333333,-12.470833333,http://www.wikidata.org/entity/Q408,Australia
http://www.wikidata.org/entity/Q21893046,Port Douglas,Point(135.333333333 -34.55),135.333333333,-34.55,http://www.wikidata.org/entity/Q408,Australia
http://www.wikidata.org/entity/Q14159543,Port Giles,Point(137.767 -35.0333),137.767,-35.0333,http://www.wikidata.org/entity/Q408,Australia
http://www.wikidata.org/entity/Q21891492,Port Grey,Point(114.6 -28.783333333),114.6,-28.783333333,http://www.wikidata.org/entity/Q408,Australia
http://www.wikidata.org/entity/Q14934980,Port Kembla,Point(150.895 -34.465),150.895,-34.465,http://www.wikidata.org/entity/Q408,Australia
http://www.wikidata.org/entity/Q21973393,Port Limit,Point(133.569444444 -32.230833333),133.569444444,-32.230833333,http://www.wikidata.org/entity/Q408,Australia
http://www.wikidata.org/entity/Q21883687,Port Turton,Point(137.383333333 -34.95),137.383333333,-34.95,http://www.wikidata.org/entity/Q408,Australia
http://www.wikidata.org/entity/Q15267654,Port Walcott,Point(117.19988 -20.65336),117.19988,-20.65336,http://www.wikidata.org/entity/Q408,Australia
http://www.wikidata.org/entity/Q7231075,Port of Albany,Point(117.90083333 -35.03666667),117.90083333,-35.03666667,http://www.wikidata.org/entity/Q408,Australia
http://www.wikidata.org/entity/Q1064859,Port of Brisbane,Point(153.1678 -27.3832),153.1678,-27.3832,http://www.wikidata.org/entity/Q408,Australia
http://www.wikidata.org/entity/Q105221547,Port of Bunbury,Point(115.660980757 -33.321010917),115.660980757,-33.321010917,http://www.wikidata.org/entity/Q408,Australia
http://www.wikidata.org/entity/Q7231098,Port of Bundaberg,Point(152.382 -24.7702),152.382,-24.7702,http://www.wikidata.org/entity/Q408,Australia
http://www.wikidata.org/entity/Q7231134,Port of Eden,Point(149.9 -37.0667),149.9,-37.0667,http://www.wikidata.org/entity/Q408,Australia
http://www.wikidata.org/entity/Q124459260,Port of Esperance,Point(121.901435946 -33.872263587),121.901435946,-33.872263587,http://www.wikidata.org/entity/Q408,Australia
http://www.wikidata.org/entity/Q7231145,Port of Geelong,Point(144.38333333 -38.11666667),144.38333333,-38.11666667,http://www.wikidata.org/entity/Q408,Australia
http://www.wikidata.org/entity/Q7231148,Port of Gladstone,Point(151.24252222 -23.82019444),151.24252222,-23.82019444,http://www.wikidata.org/entity/Q408,Australia
http://www.wikidata.org/entity/Q21018612,Port of Hobart,Point(147.36667 -42.88333),147.36667,-42.88333,http://www.wikidata.org/entity/Q408,Australia
http://www.wikidata.org/entity/Q7231191,Port of Maryborough,Point(152.767 -25.5333),152.767,-25.5333,http://www.wikidata.org/entity/Q408,Australia
http://www.wikidata.org/entity/Q2038062,Port of Melbourne,Point(144.93181 -37.84183),144.93181,-37.84183,http://www.wikidata.org/entity/Q408,Australia
http://www.wikidata.org/entity/Q2038062,Port of Melbourne,Point(144.9134231 -37.81331),144.9134231,-37.81331,http://www.wikidata.org/entity/Q408,Australia
http://www.wikidata.org/entity/Q33129353,Port of Mildura,Point(142.16679 -34.18316),142.16679,-34.18316,http://www.wikidata.org/entity/Q408,Australia
http://www.wikidata.org/entity/Q14935899,Port of Port Hedland,Point(118.575 -20.31666667),118.575,-20.31666667,http://www.wikidata.org/entity/Q408,Australia
http://www.wikidata.org/entity/Q21960285,Port of Saint Lawrence,Point(149.600833333 -22.277777777),149.600833333,-22.277777777,http://www.wikidata.org/entity/Q408,Australia
http://www.wikidata.org/entity/Q7231285,Port of Townsville,Point(146.83661389 -19.24909722),146.83661389,-19.24909722,http://www.wikidata.org/entity/Q408,Australia
http://www.wikidata.org/entity/Q21971715,Queenscliff Harbour Port,Point(144.66833 -38.2642),144.66833,-38.2642,http://www.wikidata.org/entity/Q408,Australia
http://www.wikidata.org/entity/Q21971714,Rottnest Island Port,Point(115.54232 -31.99565),115.54232,-31.99565,http://www.wikidata.org/entity/Q408,Australia
http://www.wikidata.org/entity/Q21971713,Sorrento Pier Port,Point(144.74439 -38.33674),144.74439,-38.33674,http://www.wikidata.org/entity/Q408,Australia
http://www.wikidata.org/entity/Q111386777,Thursday Island,Point(142.216666666 -10.583333333),142.216666666,-10.583333333,http://www.wikidata.org/entity/Q408,Australia
http://www.wikidata.org/entity/Q21971712,Wallaroo Port,Point(137.62208 -33.92862),137.62208,-33.92862,http://www.wikidata.org/entity/Q408,Australia
http://www.wikidata.org/entity/Q106215603,Traismauer port,Point(15.758967 48.370765),15.758967,48.370765,http://www.wikidata.org/entity/Q40,Austria
http://www.wikidata.org/entity/Q55807473,Winterhafen,Point(14.31 48.32013),14.31,48.32013,http://www.wikidata.org/entity/Q40,Austria
http://www.wikidata.org/entity/Q130724384,Wocherhafen,Point(9.7013 47.506427777),9.7013,47.506427777,http://www.wikidata.org/entity/Q40,Austria
http://www.wikidata.org/entity/Q4075924,Port of Baku,Point(49.5256 40.2343),49.5256,40.2343,http://www.wikidata.org/entity/Q227,Azerbaijan
http://www.wikidata.org/entity/Q20917171,Q20917171,Point(50.6 26.216666666),50.6,26.216666666,http://www.wikidata.org/entity/Q398,Bahrain
http://www.wikidata.org/entity/Q20926125,Q20926125,Point(50.5725 26.236111111),50.5725,26.236111111,http://www.wikidata.org/entity/Q398,Bahrain
http://www.wikidata.org/entity/Q111386719,Khalifa bin Salman,Point(50.71427178 26.189910611),50.71427178,26.189910611,http://www.wikidata.org/entity/Q398,Bahrain
http://www.wikidata.org/entity/Q4285320,Mina Salman,Point(50.607 26.201),50.607,26.201,http://www.wikidata.org/entity/Q398,Bahrain
http://www.wikidata.org/entity/Q111386892,Sitrah,Point(50.666666666 26.166666666),50.666666666,26.166666666,http://www.wikidata.org/entity/Q398,Bahrain
http://www.wikidata.org/entity/Q130678144,Bhomra Land Port,Point(88.950594 22.668202),88.950594,22.668202,http://www.wikidata.org/entity/Q902,Bangladesh
http://www.wikidata.org/entity/Q130678144,Bhomra Land Port,Point(88.9588706 22.6678539),88.9588706,22.6678539,http://www.wikidata.org/entity/Q902,Bangladesh
http://www.wikidata.org/entity/Q111387184,Chittagong,Point(91.816666666 22.316666666),91.816666666,22.316666666,http://www.wikidata.org/entity/Q902,Bangladesh
http://www.wikidata.org/entity/Q21745741,Mongla (Bangladesh),Point(89.591944444 22.490277777),89.591944444,22.490277777,http://www.wikidata.org/entity/Q902,Bangladesh
http://www.wikidata.org/entity/Q7397575,Port of Dhaka,Point(90.4111 23.7048),90.4111,23.7048,http://www.wikidata.org/entity/Q902,Bangladesh
http://www.wikidata.org/entity/Q1025642,Port of Mongla,Point(89.583333333 22.483333333),89.583333333,22.483333333,http://www.wikidata.org/entity/Q902,Bangladesh
http://www.wikidata.org/entity/Q18987918,Port of Payra,Point(90.2792 21.989),90.2792,21.989,http://www.wikidata.org/entity/Q902,Bangladesh
http://www.wikidata.org/entity/Q31726041,Teknaf land port,Point(92.279527777 20.905388888),92.279527777,20.905388888,http://www.wikidata.org/entity/Q902,Bangladesh
http://www.wikidata.org/entity/Q7231089,Port of Bridgetown,Point(-59.632 13.106),-59.632,13.106,http://www.wikidata.org/entity/Q244,Barbados
http://www.wikidata.org/entity/Q662529,Port of Antwerp,Point(4.33667 51.27),4.33667,51.27,http://www.wikidata.org/entity/Q31,Belgium
http://www.wikidata.org/entity/Q657718,Port of Ghent,Point(3.74 51.10583),3.74,51.10583,http://www.wikidata.org/entity/Q31,Belgium
http://www.wikidata.org/entity/Q16510453,Port of Nieuwpoort,Point(2.75 51.1167),2.75,51.1167,http://www.wikidata.org/entity/Q31,Belgium
http://www.wikidata.org/entity/Q1567884,Port of Ostend,Point(2.92972 51.23222),2.92972,51.23222,http://www.wikidata.org/entity/Q31,Belgium
http://www.wikidata.org/entity/Q1477819,Port of Zeebrugge,Point(3.20578 51.33447),3.20578,51.33447,http://www.wikidata.org/entity/Q31,Belgium
http://www.wikidata.org/entity/Q111387584,Belize City,Point(-88.183333333 17.5),-88.183333333,17.5,http://www.wikidata.org/entity/Q242,Belize
http://www.wikidata.org/entity/Q15919222,Port of Belize,Point(-88.18361111 17.48472222),-88.18361111,17.48472222,http://www.wikidata.org/entity/Q242,Belize
http://www.wikidata.org/entity/Q15919222,Port of Belize,Point(-88.188611111 17.498611111),-88.188611111,17.498611111,http://www.wikidata.org/entity/Q242,Belize
http://www.wikidata.org/entity/Q63249558,Port of Cotonou,Point(2.425734 6.396734),2.425734,6.396734,http://www.wikidata.org/entity/Q962,Benin
http://www.wikidata.org/entity/Q105762403,Port of Neum,Point(17.6 42.916666666),17.6,42.916666666,http://www.wikidata.org/entity/Q225,Bosnia and Herzegovina
http://www.wikidata.org/entity/Q10351909,Q10351909,Point(-40.0645278 -19.8361033),-40.0645278,-19.8361033,http://www.wikidata.org/entity/Q155,Brazil
http://www.wikidata.org/entity/Q10351933,Q10351933,Point(-52.333333 -31.782222),-52.333333,-31.782222,http://www.wikidata.org/entity/Q155,Brazil
http://www.wikidata.org/entity/Q10380622,Q10380622,Point(-36.91861111 -10.84472222),-36.91861111,-10.84472222,http://www.wikidata.org/entity/Q155,Brazil
http://www.wikidata.org/entity/Q104832560,Q104832560,Point(-38.4914579 -12.7855644),-38.4914579,-12.7855644,http://www.wikidata.org/entity/Q155,Brazil
http://www.wikidata.org/entity/Q105886381,Q105886381,Point(-38.6249532 -12.7458693),-38.6249532,-12.7458693,http://www.wikidata.org/entity/Q155,Brazil
http://www.wikidata.org/entity/Q20827449,Q20827449,Point(-48.7514793 -1.5416426),-48.7514793,-1.5416426,http://www.wikidata.org/entity/Q155,Brazil
http://www.wikidata.org/entity/Q51881850,Q51881850,Point(-46.36851 -23.87536),-46.36851,-23.87536,http://www.wikidata.org/entity/Q155,Brazil
http://www.wikidata.org/entity/Q10351905,Angra dos Reis Port,Point(-44.31653889 -23.01169722),-44.31653889,-23.01169722,http://www.wikidata.org/entity/Q155,Brazil
http://www.wikidata.org/entity/Q103798972,Balsa,Point(-60.087386111 -3.139025),-60.087386111,-3.139025,http://www.wikidata.org/entity/Q155,Brazil
http://www.wikidata.org/entity/Q111387207,Cameta,Point(-49.5 -2.25),-49.5,-2.25,http://www.wikidata.org/entity/Q155,Brazil
http://www.wikidata.org/entity/Q111387211,Camocim,Point(-40.838333333 -2.9),-40.838333333,-2.9,http://www.wikidata.org/entity/Q155,Brazil
http://www.wikidata.org/entity/Q111387668,DTSE / GEGUA Oil Terminal,Point(-43.15 -22.816666666),-43.15,-22.816666666,http://www.wikidata.org/entity/Q155,Brazil
http://www.wikidata.org/entity/Q51882030,Doca do Ver-o-Peso,Point(-48.503477254 -1.453308023),-48.503477254,-1.453308023,http://www.wikidata.org/entity/Q155,Brazil
http://www.wikidata.org/entity/Q5374435,Empresa Brasileira de Terminais Portuários,Point(-46.317 -23.922),-46.317,-23.922,http://www.wikidata.org/entity/Q155,Brazil
http://www.wikidata.org/entity/Q111387656,Gebig,Point(-44.216666666 -23.05),-44.216666666,-23.05,http://www.wikidata.org/entity/Q155,Brazil
http://www.wikidata.org/entity/Q111386556,Guamare Oil Terminal,Point(-36.283333333 -4.866666666),-36.283333333,-4.866666666,http://www.wikidata.org/entity/Q155,Brazil
http://www.wikidata.org/entity/Q111387208,Itacoatiara,Point(-58.45 -3.15),-58.45,-3.15,http://www.wikidata.org/entity/Q155,Brazil
http://www.wikidata.org/entity/Q111387439,Laguna,Point(-48.783333333 -28.5),-48.783333333,-28.5,http://www.wikidata.org/entity/Q155,Brazil
http://www.wikidata.org/entity/Q111387214,Macae,Point(-41.766666666 -22.366666666),-41.766666666,-22.366666666,http://www.wikidata.org/entity/Q155,Brazil
http://www.wikidata.org/entity/Q111387213,Madre de Deus,Point(-38.616666666 -12.75),-38.616666666,-12.75,http://www.wikidata.org/entity/Q155,Brazil
http://www.wikidata.org/entity/Q111387209,Manaus,Point(-60.016666666 -3.133333333),-60.016666666,-3.133333333,http://www.wikidata.org/entity/Q155,Brazil
http://www.wikidata.org/entity/Q111386497,Niteroi,Point(-43.116666666 -22.883333333),-43.116666666,-22.883333333,http://www.wikidata.org/entity/Q155,Brazil
http://www.wikidata.org/entity/Q18478293,Pecém Industrial and Port Complex,Point(-38.810834 -3.549532),-38.810834,-3.549532,http://www.wikidata.org/entity/Q155,Brazil
http://www.wikidata.org/entity/Q3397669,Ponta da Madeira,Point(-44.38333 -2.56667),-44.38333,-2.56667,http://www.wikidata.org/entity/Q155,Brazil
http://www.wikidata.org/entity/Q3397669,Ponta da Madeira,Point(-44.37 -2.565),-44.37,-2.565,http://www.wikidata.org/entity/Q155,Brazil
http://www.wikidata.org/entity/Q111386496,Port de Aracaju,Point(-37.05 -10.916666666),-37.05,-10.916666666,http://www.wikidata.org/entity/Q155,Brazil
http://www.wikidata.org/entity/Q10351906,Port of Antonina,Point(-48.692888888 -25.443388888),-48.692888888,-25.443388888,http://www.wikidata.org/entity/Q155,Brazil
http://www.wikidata.org/entity/Q16497503,Port of Belém,Point(-48.4975 -1.44305556),-48.4975,-1.44305556,http://www.wikidata.org/entity/Q155,Brazil
http://www.wikidata.org/entity/Q10351917,Port of Guaíba,Point(-44.034055555 -23.006583333),-44.034055555,-23.006583333,http://www.wikidata.org/entity/Q155,Brazil
http://www.wikidata.org/entity/Q10351918,Port of Ilhéus,Point(-39.025972222 -14.780805555),-39.025972222,-14.780805555,http://www.wikidata.org/entity/Q155,Brazil
http://www.wikidata.org/entity/Q10351918,Port of Ilhéus,Point(-39.033333333 -14.775),-39.033333333,-14.775,http://www.wikidata.org/entity/Q155,Brazil
http://www.wikidata.org/entity/Q10351922,Port of Itajaí,Point(-48.633333333 -26.916666666),-48.633333333,-26.916666666,http://www.wikidata.org/entity/Q155,Brazil
http://www.wikidata.org/entity/Q10351921,Port of Itapoá,Point(-48.60325 -26.183472222),-48.60325,-26.183472222,http://www.wikidata.org/entity/Q155,Brazil
http://www.wikidata.org/entity/Q131439588,Port of Jacaré,Point(-44.424282896 -2.405910262),-44.424282896,-2.405910262,http://www.wikidata.org/entity/Q155,Brazil
http://www.wikidata.org/entity/Q10351927,Port of Luís Correia,Point(-41.650027777 -2.871222222),-41.650027777,-2.871222222,http://www.wikidata.org/entity/Q155,Brazil
http://www.wikidata.org/entity/Q10351923,Port of Maceió,Point(-35.733333333 -9.666666666),-35.733333333,-9.666666666,http://www.wikidata.org/entity/Q155,Brazil
http://www.wikidata.org/entity/Q7231214,Port of Natal,Point(-35.20527778 -5.77277778),-35.20527778,-5.77277778,http://www.wikidata.org/entity/Q155,Brazil
http://www.wikidata.org/entity/Q10351929,Port of Navegantes,Point(-48.662138888 -26.896138888),-48.662138888,-26.896138888,http://www.wikidata.org/entity/Q155,Brazil
http://www.wikidata.org/entity/Q10351931,Port of Paranaguá,Point(-48.51082222 -25.50469167),-48.51082222,-25.50469167,http://www.wikidata.org/entity/Q155,Brazil
http://www.wikidata.org/entity/Q2066114,Port of Pecem,Point(-38.814765 -3.5487563),-38.814765,-3.5487563,http://www.wikidata.org/entity/Q155,Brazil
http://www.wikidata.org/entity/Q10351938,Port of Rio Grande,Point(-52.1 -32.1),-52.1,-32.1,http://www.wikidata.org/entity/Q155,Brazil
http://www.wikidata.org/entity/Q525922,Port of Rio de Janeiro,Point(-43.166666666 -22.9),-43.166666666,-22.9,http://www.wikidata.org/entity/Q155,Brazil
http://www.wikidata.org/entity/Q7231258,Port of Salvador,Point(-38.5075 -12.95861111),-38.5075,-12.95861111,http://www.wikidata.org/entity/Q155,Brazil
http://www.wikidata.org/entity/Q917499,Port of Suape,Point(-34.96222222 -8.39888889),-34.96222222,-8.39888889,http://www.wikidata.org/entity/Q155,Brazil
http://www.wikidata.org/entity/Q10351947,Port of São Francisco do Sul,Point(-48.6365 -26.237138888),-48.6365,-26.237138888,http://www.wikidata.org/entity/Q155,Brazil
http://www.wikidata.org/entity/Q10351950,Port of São Sebastião,Point(-45.39751389 -23.81115278),-45.39751389,-23.81115278,http://www.wikidata.org/entity/Q155,Brazil
http://www.wikidata.org/entity/Q917425,Port of Tubarão,Point(-40.244 -20.286),-40.244,-20.286,http://www.wikidata.org/entity/Q155,Brazil
http://www.wikidata.org/entity/Q10351959,Port of Vila Velha,Point(-40.307111111 -20.327444444),-40.307111111,-20.327444444,http://www.wikidata.org/entity/Q155,Brazil
http://www.wikidata.org/entity/Q10351962,Port of Vitória,Point(-40.337444444 -20.322388888),-40.337444444,-20.322388888,http://www.wikidata.org/entity/Q155,Brazil
http://www.wikidata.org/entity/Q10351920,Port of itaguaí,Point(-43.8319 -22.9363),-43.8319,-22.9363,http://www.wikidata.org/entity/Q155,Brazil
http://www.wikidata.org/entity/Q111387441,Porto Alegre,Point(-51.716666666 -30.033333333),-51.716666666,-30.033333333,http://www.wikidata.org/entity/Q155,Brazil
http://www.wikidata.org/entity/Q22070821,Porto Ananias,Point(-48.7576 -25.82429),-48.7576,-25.82429,http://www.wikidata.org/entity/Q155,Brazil
http://www.wikidata.org/entity/Q22072200,Porto Guaíra,Point(-50.730277777 -23.938611111),-50.730277777,-23.938611111,http://www.wikidata.org/entity/Q155,Brazil
http://www.wikidata.org/entity/Q22068545,Porto João Barbosa,Point(-48.7381 -26.5615),-48.7381,-26.5615,http://www.wikidata.org/entity/Q155,Brazil
http://www.wikidata.org/entity/Q22071046,Porto Nando Gomes,Point(-48.681111111 -25.473611111),-48.681111111,-25.473611111,http://www.wikidata.org/entity/Q155,Brazil
http://www.wikidata.org/entity/Q2105236,Porto Santana,Point(-51.1809 -0.05573),-51.1809,-0.05573,http://www.wikidata.org/entity/Q155,Brazil
http://www.wikidata.org/entity/Q22070048,Porto Velho,Point(-48.791666666 -24.680277777),-48.791666666,-24.680277777,http://www.wikidata.org/entity/Q155,Brazil
http://www.wikidata.org/entity/Q22049675,Porto da Madame,Point(-43.1 -22.833333333),-43.1,-22.833333333,http://www.wikidata.org/entity/Q155,Brazil
http://www.wikidata.org/entity/Q22036569,Porto da Pedra,Point(-43.066666666 -22.816666666),-43.066666666,-22.816666666,http://www.wikidata.org/entity/Q155,Brazil
http://www.wikidata.org/entity/Q22068547,Porto da Vila Itapoc,Point(-48.725277777 -26.5525),-48.725277777,-26.5525,http://www.wikidata.org/entity/Q155,Brazil
http://www.wikidata.org/entity/Q22071025,Porto das Rosas,Point(-48.6659 -25.4139),-48.6659,-25.4139,http://www.wikidata.org/entity/Q155,Brazil
http://www.wikidata.org/entity/Q1424375,Porto de Aratu,Point(-38.5002994 -12.77648),-38.5002994,-12.77648,http://www.wikidata.org/entity/Q155,Brazil
http://www.wikidata.org/entity/Q10351911,Porto de Cabedelo,Point(-34.838947 -6.972686),-34.838947,-6.972686,http://www.wikidata.org/entity/Q155,Brazil
http://www.wikidata.org/entity/Q22072132,Porto de Imbituba,Point(-48.65313 -28.22727),-48.65313,-28.22727,http://www.wikidata.org/entity/Q155,Brazil
http://www.wikidata.org/entity/Q22018422,Porto de Mucuripe,Point(-38.466666666 -3.716666666),-38.466666666,-3.716666666,http://www.wikidata.org/entity/Q155,Brazil
http://www.wikidata.org/entity/Q10351954,Porto de Ubu,Point(-40.57304 -20.78738),-40.57304,-20.78738,http://www.wikidata.org/entity/Q155,Brazil
http://www.wikidata.org/entity/Q10351971,Porto do Forno,Point(-42.016055555 -22.970694444),-42.016055555,-22.970694444,http://www.wikidata.org/entity/Q155,Brazil
http://www.wikidata.org/entity/Q3398608,Porto do Itaqui,Point(-44.36416667 -2.5725),-44.36416667,-2.5725,http://www.wikidata.org/entity/Q155,Brazil
http://www.wikidata.org/entity/Q10351978,Porto do Mucuripe,Point(-38.47333333 -3.71),-38.47333333,-3.71,http://www.wikidata.org/entity/Q155,Brazil
http://www.wikidata.org/entity/Q10375074,Porto of Açu,Point(-41.0199 -21.8209),-41.0199,-21.8209,http://www.wikidata.org/entity/Q155,Brazil
http://www.wikidata.org/entity/Q111387626,Portocel,Point(-40.05 -19.85),-40.05,-19.85,http://www.wikidata.org/entity/Q155,Brazil
http://www.wikidata.org/entity/Q104897147,Rampa do Mercado Modelo,Point(-38.513002 -12.972446),-38.513002,-12.972446,http://www.wikidata.org/entity/Q155,Brazil
http://www.wikidata.org/entity/Q7302439,Recife port,Point(-34.869888888 -8.053694444),-34.869888888,-8.053694444,http://www.wikidata.org/entity/Q155,Brazil
http://www.wikidata.org/entity/Q111387627,Santa Clara,Point(-51.366666666 -20.883333333),-51.366666666,-20.883333333,http://www.wikidata.org/entity/Q155,Brazil
http://www.wikidata.org/entity/Q111387206,Santarem,Point(-54.716666666 -2.416666666),-54.716666666,-2.416666666,http://www.wikidata.org/entity/Q155,Brazil
http://www.wikidata.org/entity/Q104832557,Terminal Portuário de Cotegipe,Point(-38.4791806 -12.7890576),-38.4791806,-12.7890576,http://www.wikidata.org/entity/Q155,Brazil
http://www.wikidata.org/entity/Q111387440,Tramandai,Point(-50.133333333 -29.983333333),-50.133333333,-29.983333333,http://www.wikidata.org/entity/Q155,Brazil
http://www.wikidata.org/entity/Q111387210,Tutoia,Point(-42.283333333 -2.783333333),-42.283333333,-2.783333333,http://www.wikidata.org/entity/Q155,Brazil
http://www.wikidata.org/entity/Q26262452,Q26262452,Point(-64.751388888 18.446111111),-64.751388888,18.446111111,http://www.wikidata.org/entity/Q25305,British Virgin Islands
http://www.wikidata.org/entity/Q111386751,Kuala Belait,Point(114.2 4.633333333),114.2,4.633333333,http://www.wikidata.org/entity/Q921,Brunei
http://www.wikidata.org/entity/Q111387598,Muara Harbor,Point(115.066666666 5.033333333),115.066666666,5.033333333,http://www.wikidata.org/entity/Q921,Brunei
http://www.wikidata.org/entity/Q67089675,Muara Port,Point(115.072989 5.024853),115.072989,5.024853,http://www.wikidata.org/entity/Q921,Brunei
http://www.wikidata.org/entity/Q111387597,Seria Oil Loading Terminal,Point(114.316666666 4.616666666),114.316666666,4.616666666,http://www.wikidata.org/entity/Q921,Brunei
http://www.wikidata.org/entity/Q12291465,Q12291465,Point(27.901374 43.186459),27.901374,43.186459,http://www.wikidata.org/entity/Q219,Bulgaria
http://www.wikidata.org/entity/Q12291467,Q12291467,Point(23.240555555 43.829722222),23.240555555,43.829722222,http://www.wikidata.org/entity/Q219,Bulgaria
http://www.wikidata.org/entity/Q12291468,Q12291468,Point(27.265 44.123888888),27.265,44.123888888,http://www.wikidata.org/entity/Q219,Bulgaria
http://www.wikidata.org/entity/Q20498029,Q20498029,Point(27.265 44.123888888),27.265,44.123888888,http://www.wikidata.org/entity/Q219,Bulgaria
http://www.wikidata.org/entity/Q20499616,Q20499616,Point(27.228055555 44.111111111),27.228055555,44.111111111,http://www.wikidata.org/entity/Q219,Bulgaria
http://www.wikidata.org/entity/Q20500165,Q20500165,Point(27.2606647 44.1223435),27.2606647,44.1223435,http://www.wikidata.org/entity/Q219,Bulgaria
http://www.wikidata.org/entity/Q21781021,Q21781021,Point(28.351666666 43.4125),28.351666666,43.4125,http://www.wikidata.org/entity/Q219,Bulgaria
http://www.wikidata.org/entity/Q25483657,Q25483657,Point(27.676388888 43.186111111),27.676388888,43.186111111,http://www.wikidata.org/entity/Q219,Bulgaria
http://www.wikidata.org/entity/Q27922016,Q27922016,Point(24.772777777 43.690833333),24.772777777,43.690833333,http://www.wikidata.org/entity/Q219,Bulgaria
http://www.wikidata.org/entity/Q28056171,Q28056171,Point(27.857222222 42.170555555),27.857222222,42.170555555,http://www.wikidata.org/entity/Q219,Bulgaria
http://www.wikidata.org/entity/Q28058957,Q28058957,Point(26.611388888 44.051666666),26.611388888,44.051666666,http://www.wikidata.org/entity/Q219,Bulgaria
http://www.wikidata.org/entity/Q37979051,Q37979051,Point(27.988055555 43.216944444),27.988055555,43.216944444,http://www.wikidata.org/entity/Q219,Bulgaria
http://www.wikidata.org/entity/Q27922025,Nesebar port,Point(27.731222222 42.655277777),27.731222222,42.655277777,http://www.wikidata.org/entity/Q219,Bulgaria
http://www.wikidata.org/entity/Q27922021,Port of Balchik,Point(28.166416666 43.402194444),28.166416666,43.402194444,http://www.wikidata.org/entity/Q219,Bulgaria
http://www.wikidata.org/entity/Q1567774,Port of Burgas,Point(27.47172222 42.48333333),27.47172222,42.48333333,http://www.wikidata.org/entity/Q219,Bulgaria
http://www.wikidata.org/entity/Q12291469,Port of Rousse,Point(25.984722222 43.87),25.984722222,43.87,http://www.wikidata.org/entity/Q219,Bulgaria
http://www.wikidata.org/entity/Q28056176,Port of Sozopol,Point(27.692777777 42.423611111),27.692777777,42.423611111,http://www.wikidata.org/entity/Q219,Bulgaria
http://www.wikidata.org/entity/Q28058958,Port of Svishtov,Point(25.345833333 43.623333333),25.345833333,43.623333333,http://www.wikidata.org/entity/Q219,Bulgaria
http://www.wikidata.org/entity/Q12291466,Port of Vidin,Point(22.877222222 43.981944444),22.877222222,43.981944444,http://www.wikidata.org/entity/Q219,Bulgaria
http://www.wikidata.org/entity/Q21786765,Pristanishten Kompleks Burgas,Point(27.47525 42.49117),27.47525,42.49117,http://www.wikidata.org/entity/Q219,Bulgaria
http://www.wikidata.org/entity/Q3288771,Harbour of Eleutherios,Point(28.95222222 41.00466667),28.95222222,41.00466667,http://www.wikidata.org/entity/Q12544,Byzantine Empire
http://www.wikidata.org/entity/Q111387244,Kampong Saom,Point(103.5 10.633333333),103.5,10.633333333,http://www.wikidata.org/entity/Q424,Cambodia
http://www.wikidata.org/entity/Q15958728,Port of Phnom Penh,Point(104.9233333 11.58305556),104.9233333,11.58305556,http://www.wikidata.org/entity/Q424,Cambodia
http://www.wikidata.org/entity/Q109019956,Q109019956,Point(9.90647799 2.93742555),9.90647799,2.93742555,http://www.wikidata.org/entity/Q1009,Cameroon
http://www.wikidata.org/entity/Q24199810,Q24199810,Point(9.193441 4.011187),9.193441,4.011187,http://www.wikidata.org/entity/Q1009,Cameroon
http://www.wikidata.org/entity/Q111387663,Kole Oil Terminal,Point(8.55 4.25),8.55,4.25,http://www.wikidata.org/entity/Q1009,Cameroon
http://www.wikidata.org/entity/Q111386528,Limboh Terminal,Point(9.15 3.983333333),9.15,3.983333333,http://www.wikidata.org/entity/Q1009,Cameroon
http://www.wikidata.org/entity/Q3398427,Port autonome de Douala,Point(9.7 4.05),9.7,4.05,http://www.wikidata.org/entity/Q1009,Cameroon
http://www.wikidata.org/entity/Q19951229,Q19951229,Point(-72.5394 46.3405),-72.5394,46.3405,http://www.wikidata.org/entity/Q16,Canada
http://www.wikidata.org/entity/Q25391371,Q25391371,Point(-74.0895 45.228634),-74.0895,45.228634,http://www.wikidata.org/entity/Q16,Canada
http://www.wikidata.org/entity/Q3364384,Q3364384,Point(-72.3875 46.3787),-72.3875,46.3787,http://www.wikidata.org/entity/Q16,Canada
http://www.wikidata.org/entity/Q3398455,Q3398455,Point(-65.8487 47.9105),-65.8487,47.9105,http://www.wikidata.org/entity/Q16,Canada
http://www.wikidata.org/entity/Q3398474,Q3398474,Point(-66.372 48.0713),-66.372,48.0713,http://www.wikidata.org/entity/Q16,Canada
http://www.wikidata.org/entity/Q110428238,Aalders Landing,Point(-64.907222222 44.828611111),-64.907222222,44.828611111,http://www.wikidata.org/entity/Q16,Canada
http://www.wikidata.org/entity/Q116744318,Anna Maria Port,Point(-67.8833333 63.7333334),-67.8833333,63.7333334,http://www.wikidata.org/entity/Q16,Canada
http://www.wikidata.org/entity/Q15207100,Canaport,Point(-65.985952 45.211271),-65.985952,45.211271,http://www.wikidata.org/entity/Q16,Canada
http://www.wikidata.org/entity/Q111386986,Gargantua,Point(-84.966666666 47.566666666),-84.966666666,47.566666666,http://www.wikidata.org/entity/Q16,Canada
http://www.wikidata.org/entity/Q4999203,Hamilton Harbour,Point(-79.835 43.29),-79.835,43.29,http://www.wikidata.org/entity/Q16,Canada
http://www.wikidata.org/entity/Q114733638,Le Vieux Port,Point(-67.5347222 48.8544444),-67.5347222,48.8544444,http://www.wikidata.org/entity/Q16,Canada
http://www.wikidata.org/entity/Q112072435,Little Port,Point(-58.4244444 49.1077778),-58.4244444,49.1077778,http://www.wikidata.org/entity/Q16,Canada
http://www.wikidata.org/entity/Q2901611,Ogden Point,Point(-123.39 48.415),-123.39,48.415,http://www.wikidata.org/entity/Q16,Canada
http://www.wikidata.org/entity/Q437955,Old Port of Montreal,Point(-73.5524 45.5049),-73.5524,45.5049,http://www.wikidata.org/entity/Q16,Canada
http://www.wikidata.org/entity/Q7230519,Port Burwell,Point(-64.81751 60.41486),-64.81751,60.41486,http://www.wikidata.org/entity/Q16,Canada
http://www.wikidata.org/entity/Q114733643,Port Jacques-Cartier,Point(-58.2663889 51.3008333),-58.2663889,51.3008333,http://www.wikidata.org/entity/Q16,Canada
http://www.wikidata.org/entity/Q16211373,Port Leopold,Point(-90.0 74.0),-90.0,74.0,http://www.wikidata.org/entity/Q16,Canada
http://www.wikidata.org/entity/Q22960347,Port Refuge,Point(-94.716666666 76.3),-94.716666666,76.3,http://www.wikidata.org/entity/Q16,Canada
http://www.wikidata.org/entity/Q114733633,Port Saint-Servain,Point(-58.0294444 51.3183333),-58.0294444,51.3183333,http://www.wikidata.org/entity/Q16,Canada
http://www.wikidata.org/entity/Q114733641,Port Sainte-Hélène,Point(-73.5333333 45.5277778),-73.5333333,45.5277778,http://www.wikidata.org/entity/Q16,Canada
http://www.wikidata.org/entity/Q112072436,Port au Bras,Point(-55.1438889 47.0544444),-55.1438889,47.0544444,http://www.wikidata.org/entity/Q16,Canada
http://www.wikidata.org/entity/Q114733645,Port au Persil,Point(-69.8997222 47.8052778),-69.8997222,47.8052778,http://www.wikidata.org/entity/Q16,Canada
http://www.wikidata.org/entity/Q114733646,Port aux Quilles,Point(-69.8372222 47.8866667),-69.8372222,47.8866667,http://www.wikidata.org/entity/Q16,Canada
http://www.wikidata.org/entity/Q114733637,Port de Cap-aux-Meules,Point(-61.8569444 47.38),-61.8569444,47.38,http://www.wikidata.org/entity/Q16,Canada
http://www.wikidata.org/entity/Q114733635,Port de Gros-Cacouna,Point(-69.51199 47.92771),-69.51199,47.92771,http://www.wikidata.org/entity/Q16,Canada
http://www.wikidata.org/entity/Q114733640,Port de Matane,Point(-67.5772222 48.8438889),-67.5772222,48.8438889,http://www.wikidata.org/entity/Q16,Canada
http://www.wikidata.org/entity/Q114733636,Port de Pointe-au-Pic,Point(-70.1416667 47.6227778),-70.1416667,47.6227778,http://www.wikidata.org/entity/Q16,Canada
http://www.wikidata.org/entity/Q114733647,Port de Sorel,Point(-73.1161111 46.0477778),-73.1161111,46.0477778,http://www.wikidata.org/entity/Q16,Canada
http://www.wikidata.org/entity/Q7231115,Port of Churchill,Point(-94.1935 58.7745),-94.1935,58.7745,http://www.wikidata.org/entity/Q16,Canada
http://www.wikidata.org/entity/Q98280515,Port of Goderich,Point(-81.733333333 43.75),-81.733333333,43.75,http://www.wikidata.org/entity/Q16,Canada
http://www.wikidata.org/entity/Q1567789,Port of Halifax,Point(-63.5681 44.637),-63.5681,44.637,http://www.wikidata.org/entity/Q16,Canada
http://www.wikidata.org/entity/Q1567876,Port of Montreal,Point(-73.5265 45.553),-73.5265,45.553,http://www.wikidata.org/entity/Q16,Canada
http://www.wikidata.org/entity/Q3398555,Port of Quebec,Point(-71.204 46.821),-71.204,46.821,http://www.wikidata.org/entity/Q16,Canada
http://www.wikidata.org/entity/Q3398549,Port of Saint John,Point(-66.0417 45.2725),-66.0417,45.2725,http://www.wikidata.org/entity/Q16,Canada
http://www.wikidata.org/entity/Q3398561,Port of Shippagan,Point(-64.7 47.75),-64.7,47.75,http://www.wikidata.org/entity/Q16,Canada
http://www.wikidata.org/entity/Q107036881,Port of Toronto,Point(-79.349 43.637),-79.349,43.637,http://www.wikidata.org/entity/Q16,Canada
http://www.wikidata.org/entity/Q731563,Port of Vancouver,Point(-123.08 49.2854),-123.08,49.2854,http://www.wikidata.org/entity/Q16,Canada
http://www.wikidata.org/entity/Q109365257,Resolute Bay,Point(-95.9 74.683333333),-95.9,74.683333333,http://www.wikidata.org/entity/Q16,Canada
http://www.wikidata.org/entity/Q2159647,Roberts Bank Superport,Point(-123.16055556 49.02027778),-123.16055556,49.02027778,http://www.wikidata.org/entity/Q16,Canada
http://www.wikidata.org/entity/Q112072437,Ship Cove,Point(-53.3280063 48.3873897),-53.3280063,48.3873897,http://www.wikidata.org/entity/Q16,Canada
http://www.wikidata.org/entity/Q7497925,Ship Harbour,Point(-53.902686111 47.360097222),-53.902686111,47.360097222,http://www.wikidata.org/entity/Q16,Canada
http://www.wikidata.org/entity/Q125921541,Q125921541,Point(-25.05936237 17.01592814),-25.05936237,17.01592814,http://www.wikidata.org/entity/Q1011,Cape Verde
http://www.wikidata.org/entity/Q23007049,Porto da Praia,Point(-23.50525 14.91053),-23.50525,14.91053,http://www.wikidata.org/entity/Q1011,Cape Verde
http://www.wikidata.org/entity/Q23007049,Porto da Praia,Point(-23.5071 14.9199),-23.5071,14.9199,http://www.wikidata.org/entity/Q1011,Cape Verde
http://www.wikidata.org/entity/Q30621712,Vale de Cavaleiros,Point(-24.50363 14.92036),-24.50363,14.92036,http://www.wikidata.org/entity/Q1011,Cape Verde
http://www.wikidata.org/entity/Q23657833,Q23657833,Point(-71.237222222 -28.47),-71.237222222,-28.47,http://www.wikidata.org/entity/Q298,Chile
http://www.wikidata.org/entity/Q23657840,Q23657840,Point(-71.263888888 -28.473611111),-71.263888888,-28.473611111,http://www.wikidata.org/entity/Q298,Chile
http://www.wikidata.org/entity/Q23657892,Q23657892,Point(-73.25 -48.15),-73.25,-48.15,http://www.wikidata.org/entity/Q298,Chile
http://www.wikidata.org/entity/Q23658226,Q23658226,Point(-72.3 -35.333333333),-72.3,-35.333333333,http://www.wikidata.org/entity/Q298,Chile
http://www.wikidata.org/entity/Q111386759,Bahia Agua Fresca,Point(-70.966666666 -53.383333333),-70.966666666,-53.383333333,http://www.wikidata.org/entity/Q298,Chile
http://www.wikidata.org/entity/Q111386828,Bahia Harris,Point(-70.45 -53.85),-70.45,-53.85,http://www.wikidata.org/entity/Q298,Chile
http://www.wikidata.org/entity/Q111386974,Bahia Herradura Guayacan,Point(-71.366666666 -29.966666666),-71.366666666,-29.966666666,http://www.wikidata.org/entity/Q298,Chile
http://www.wikidata.org/entity/Q111387029,Bahia Quintero (Ventanas),Point(-71.508055555 -32.763333333),-71.508055555,-32.763333333,http://www.wikidata.org/entity/Q298,Chile
http://www.wikidata.org/entity/Q111387027,Bahia San Vicente,Point(-73.166666666 -36.733333333),-73.166666666,-36.733333333,http://www.wikidata.org/entity/Q298,Chile
http://www.wikidata.org/entity/Q111387530,Bahia de Valdivia,Point(-73.25 -39.8),-73.25,-39.8,http://www.wikidata.org/entity/Q298,Chile
http://www.wikidata.org/entity/Q111386825,Caleta Clarencia,Point(-70.1 -52.9),-70.1,-52.9,http://www.wikidata.org/entity/Q298,Chile
http://www.wikidata.org/entity/Q111386829,Caleta Mina Elena,Point(-71.9 -52.683333333),-71.9,-52.683333333,http://www.wikidata.org/entity/Q298,Chile
http://www.wikidata.org/entity/Q111386518,Caleta Patillos,Point(-70.194166666 -20.744166666),-70.194166666,-20.744166666,http://www.wikidata.org/entity/Q298,Chile
http://www.wikidata.org/entity/Q1104686,"Cobija, Chile",Point(-70.2667 -22.55),-70.2667,-22.55,http://www.wikidata.org/entity/Q298,Chile
http://www.wikidata.org/entity/Q111386975,Coquimbo,Point(-71.333333333 -29.95),-71.333333333,-29.95,http://www.wikidata.org/entity/Q298,Chile
http://www.wikidata.org/entity/Q111386808,Coronel,Point(-73.166666666 -37.033333333),-73.166666666,-37.033333333,http://www.wikidata.org/entity/Q298,Chile
http://www.wikidata.org/entity/Q111386976,Huasco,Point(-71.25 -28.466666666),-71.25,-28.466666666,http://www.wikidata.org/entity/Q298,Chile
http://www.wikidata.org/entity/Q111386981,Mejillones,Point(-70.4035 -23.0759),-70.4035,-23.0759,http://www.wikidata.org/entity/Q298,Chile
http://www.wikidata.org/entity/Q108163295,Minera Dominga,Point(-71.192076209 -29.369238451),-71.192076209,-29.369238451,http://www.wikidata.org/entity/Q298,Chile
http://www.wikidata.org/entity/Q111387028,Penco,Point(50.588266793 26.127199688),50.588266793,26.127199688,http://www.wikidata.org/entity/Q298,Chile
http://www.wikidata.org/entity/Q111386826,Port San Juan de la Juan,Point(-70.916666666 -53.633333333),-70.916666666,-53.633333333,http://www.wikidata.org/entity/Q298,Chile
http://www.wikidata.org/entity/Q111386978,Port of Antofagasta,Point(-70.406944444 -23.65),-70.406944444,-23.65,http://www.wikidata.org/entity/Q298,Chile
http://www.wikidata.org/entity/Q538646,Port of Arica,Point(-70.319325 -18.47219444),-70.319325,-18.47219444,http://www.wikidata.org/entity/Q298,Chile
http://www.wikidata.org/entity/Q111386984,Port of Iquique,Point(-70.158333333 -20.205555555),-70.158333333,-20.205555555,http://www.wikidata.org/entity/Q298,Chile
http://www.wikidata.org/entity/Q6092102,Port of Lirquén,Point(-72.983333333 -36.716666666),-72.983333333,-36.716666666,http://www.wikidata.org/entity/Q298,Chile
http://www.wikidata.org/entity/Q95587065,Port of San Antonio,Point(-71.620801 -33.594413),-71.620801,-33.594413,http://www.wikidata.org/entity/Q298,Chile
http://www.wikidata.org/entity/Q6092443,Port of Valparaíso,Point(-71.627825 -33.03270556),-71.627825,-33.03270556,http://www.wikidata.org/entity/Q298,Chile
http://www.wikidata.org/entity/Q23651857,Puerto Calderilla,Point(-70.863055555 -27.085277777),-70.863055555,-27.085277777,http://www.wikidata.org/entity/Q298,Chile
http://www.wikidata.org/entity/Q111387517,Puerto Castro,Point(-73.766666666 -42.483333333),-73.766666666,-42.483333333,http://www.wikidata.org/entity/Q298,Chile
http://www.wikidata.org/entity/Q111387527,Puerto Chacabuco,Point(-72.833333333 -45.466666666),-72.833333333,-45.466666666,http://www.wikidata.org/entity/Q298,Chile
http://www.wikidata.org/entity/Q111386977,Puerto Chanaral,Point(-70.634444444 -26.350555555),-70.634444444,-26.350555555,http://www.wikidata.org/entity/Q298,Chile
http://www.wikidata.org/entity/Q24943872,Puerto Loberos,Point(-74.633333333 -52.833333333),-74.633333333,-52.833333333,http://www.wikidata.org/entity/Q298,Chile
http://www.wikidata.org/entity/Q111387512,Puerto Montt,Point(-72.966666666 -41.483333333),-72.966666666,-41.483333333,http://www.wikidata.org/entity/Q298,Chile
http://www.wikidata.org/entity/Q111387507,Puerto Natales,Point(-72.566666666 -51.716666666),-72.566666666,-51.716666666,http://www.wikidata.org/entity/Q298,Chile
http://www.wikidata.org/entity/Q23658266,Puerto Naval de Talcahuano,Point(-73.105555555 -36.694444444),-73.105555555,-36.694444444,http://www.wikidata.org/entity/Q298,Chile
http://www.wikidata.org/entity/Q23660084,Puerto Oscuro,Point(-72.5475 -41.190277777),-72.5475,-41.190277777,http://www.wikidata.org/entity/Q298,Chile
http://www.wikidata.org/entity/Q23657849,Puerto Palena,Point(-72.966666666 -43.75),-72.966666666,-43.75,http://www.wikidata.org/entity/Q298,Chile
http://www.wikidata.org/entity/Q23658263,Puerto Pesquero de Talcahuano,Point(-73.111111111 -36.706944444),-73.111111111,-36.706944444,http://www.wikidata.org/entity/Q298,Chile
http://www.wikidata.org/entity/Q111387519,Puerto Quemchi,Point(-73.483333333 -42.15),-73.483333333,-42.15,http://www.wikidata.org/entity/Q298,Chile
http://www.wikidata.org/entity/Q111386824,Puerto Sara,Point(-70.2 -52.633333333),-70.2,-52.633333333,http://www.wikidata.org/entity/Q298,Chile
http://www.wikidata.org/entity/Q23657780,Puerto Talcahuano,Point(-73.116666666 -36.695833333),-73.116666666,-36.695833333,http://www.wikidata.org/entity/Q298,Chile
http://www.wikidata.org/entity/Q23658228,Puerto Tomé,Point(-72.95 -36.583333333),-72.95,-36.583333333,http://www.wikidata.org/entity/Q298,Chile
http://www.wikidata.org/entity/Q111386517,Puerto Williams,Point(-67.6 -54.933333333),-67.6,-54.933333333,http://www.wikidata.org/entity/Q298,Chile
http://www.wikidata.org/entity/Q111386760,Puerto Yartou,Point(-70.15 -53.883333333),-70.15,-53.883333333,http://www.wikidata.org/entity/Q298,Chile
http://www.wikidata.org/entity/Q23651851,Puerto de Caldera,Point(-70.82492 -27.06356),-70.82492,-27.06356,http://www.wikidata.org/entity/Q298,Chile
http://www.wikidata.org/entity/Q111387511,Puerto de Corral,Point(-73.433333333 -39.866666666),-73.433333333,-39.866666666,http://www.wikidata.org/entity/Q298,Chile
http://www.wikidata.org/entity/Q111386757,Punta Delgada,Point(-69.55 -52.466666666),-69.55,-52.466666666,http://www.wikidata.org/entity/Q298,Chile
http://www.wikidata.org/entity/Q111386758,Rada Punta Arenas,Point(-70.9 -53.166666666),-70.9,-53.166666666,http://www.wikidata.org/entity/Q298,Chile
http://www.wikidata.org/entity/Q111386979,Taltal,Point(-70.483333333 -25.4),-70.483333333,-25.4,http://www.wikidata.org/entity/Q298,Chile
http://www.wikidata.org/entity/Q111386982,Tocopilla,Point(-70.210833333 -22.091111111),-70.210833333,-22.091111111,http://www.wikidata.org/entity/Q298,Chile
http://www.wikidata.org/entity/Q111387570,Barranquilla,Point(-74.766666666 10.966666666),-74.766666666,10.966666666,http://www.wikidata.org/entity/Q739,Colombia
http://www.wikidata.org/entity/Q111386446,Cartagena,Point(-75.533333333 10.416666666),-75.533333333,10.416666666,http://www.wikidata.org/entity/Q739,Colombia
http://www.wikidata.org/entity/Q111386553,Covenas Offshore Terminal,Point(-75.733333333 9.5),-75.733333333,9.5,http://www.wikidata.org/entity/Q739,Colombia
http://www.wikidata.org/entity/Q111386631,El Bosque,Point(-75.533333333 10.4),-75.533333333,10.4,http://www.wikidata.org/entity/Q739,Colombia
http://www.wikidata.org/entity/Q111387573,Pozos Colorados,Point(-74.25 11.15),-74.25,11.15,http://www.wikidata.org/entity/Q739,Colombia
http://www.wikidata.org/entity/Q23730961,Puerto Carreño,Point(-67.483741719 6.1903121),-67.483741719,6.1903121,http://www.wikidata.org/entity/Q739,Colombia
http://www.wikidata.org/entity/Q23683640,Puerto Ecopetrol,Point(-75.683333333 9.4),-75.683333333,9.4,http://www.wikidata.org/entity/Q739,Colombia
http://www.wikidata.org/entity/Q23698199,Puerto Las Varas,Point(-73.765277777 9.0075),-73.765277777,9.0075,http://www.wikidata.org/entity/Q739,Colombia
http://www.wikidata.org/entity/Q111386632,Puerto Prodeco,Point(-74.216666666 11.15),-74.216666666,11.15,http://www.wikidata.org/entity/Q739,Colombia
http://www.wikidata.org/entity/Q23701981,Puerto de Tumaco,Point(-78.766666666 1.816666666),-78.766666666,1.816666666,http://www.wikidata.org/entity/Q739,Colombia
http://www.wikidata.org/entity/Q111386447,Santa Marta,Point(-74.216666666 11.25),-74.216666666,11.25,http://www.wikidata.org/entity/Q739,Colombia
http://www.wikidata.org/entity/Q111386445,Turbo,Point(-76.733333333 8.083333333),-76.733333333,8.083333333,http://www.wikidata.org/entity/Q739,Colombia
http://www.wikidata.org/entity/Q111387087,Dzaoudzi,Point(45.25 -12.783333333),45.25,-12.783333333,http://www.wikidata.org/entity/Q970,Comoros
http://www.wikidata.org/entity/Q111386867,Fomboni,Point(43.75 -12.266666666),43.75,-12.266666666,http://www.wikidata.org/entity/Q970,Comoros
http://www.wikidata.org/entity/Q111386869,Moutsamoudu,Point(44.4 -12.15),44.4,-12.15,http://www.wikidata.org/entity/Q970,Comoros
http://www.wikidata.org/entity/Q1026433,Caldera,Point(-84.716666666 9.943333333),-84.716666666,9.943333333,http://www.wikidata.org/entity/Q800,Costa Rica
http://www.wikidata.org/entity/Q111387031,Golfito,Point(-83.17015171 8.636369),-83.17015171,8.636369,http://www.wikidata.org/entity/Q800,Costa Rica
http://www.wikidata.org/entity/Q105967064,Puerto Caldera,Point(-84.71814 9.912799),-84.71814,9.912799,http://www.wikidata.org/entity/Q800,Costa Rica
http://www.wikidata.org/entity/Q111386657,Puerto Limon,Point(-83.036231 9.995647),-83.036231,9.995647,http://www.wikidata.org/entity/Q800,Costa Rica
http://www.wikidata.org/entity/Q23747044,Puerto de Carño Blanco,Point(-83.35825 10.28748),-83.35825,10.28748,http://www.wikidata.org/entity/Q800,Costa Rica
http://www.wikidata.org/entity/Q18028117,Q18028117,Point(18.11198 42.64055),18.11198,42.64055,http://www.wikidata.org/entity/Q224,Croatia
http://www.wikidata.org/entity/Q26224641,Dubrovnik Port,Point(18.08653 42.65903),18.08653,42.65903,http://www.wikidata.org/entity/Q224,Croatia
http://www.wikidata.org/entity/Q26224642,Hvar Port,Point(16.44139 43.17045),16.44139,43.17045,http://www.wikidata.org/entity/Q224,Croatia
http://www.wikidata.org/entity/Q12644890,Lora (Split),Point(16.428055555 43.526388888),16.428055555,43.526388888,http://www.wikidata.org/entity/Q224,Croatia
http://www.wikidata.org/entity/Q12635866,Luka Pula,Point(13.846667 44.875),13.846667,44.875,http://www.wikidata.org/entity/Q224,Croatia
http://www.wikidata.org/entity/Q7231229,Port of Ploče,Point(17.43333333 43.05),17.43333333,43.05,http://www.wikidata.org/entity/Q224,Croatia
http://www.wikidata.org/entity/Q1567835,Port of Rijeka,Point(14.43926 45.32552),14.43926,45.32552,http://www.wikidata.org/entity/Q224,Croatia
http://www.wikidata.org/entity/Q7231268,Port of Split,Point(16.442156 43.505079),16.442156,43.505079,http://www.wikidata.org/entity/Q224,Croatia
http://www.wikidata.org/entity/Q111386565,BAHAI DE LA HABANA,Point(-82.366666666 23.133333333),-82.366666666,23.133333333,http://www.wikidata.org/entity/Q241,Cuba
http://www.wikidata.org/entity/Q23789653,Bahía de Sagua de Tánamo,Point(-75.333333333 20.683333333),-75.333333333,20.683333333,http://www.wikidata.org/entity/Q241,Cuba
http://www.wikidata.org/entity/Q111386567,Cabanas,Point(-82.966666666 23.0),-82.966666666,23.0,http://www.wikidata.org/entity/Q241,Cuba
http://www.wikidata.org/entity/Q111386688,Casilda,Point(-79.983333333 21.75),-79.983333333,21.75,http://www.wikidata.org/entity/Q241,Cuba
http://www.wikidata.org/entity/Q111386524,Cayo Moa Grande,Point(-74.9 20.666666666),-74.9,20.666666666,http://www.wikidata.org/entity/Q241,Cuba
http://www.wikidata.org/entity/Q5096464,Chicola,Point(-78.724 22.302),-78.724,22.302,http://www.wikidata.org/entity/Q241,Cuba
http://www.wikidata.org/entity/Q111386645,Cienfuegos,Point(-80.45 22.15),-80.45,22.15,http://www.wikidata.org/entity/Q241,Cuba
http://www.wikidata.org/entity/Q23806304,Dársena de Buenavista,Point(-83.166666666 22.966666666),-83.166666666,22.966666666,http://www.wikidata.org/entity/Q241,Cuba
http://www.wikidata.org/entity/Q111386569,Felton,Point(-75.6 20.733333333),-75.6,20.733333333,http://www.wikidata.org/entity/Q241,Cuba
http://www.wikidata.org/entity/Q111386566,Isabela de Sagua,Point(-80.0 22.95),-80.0,22.95,http://www.wikidata.org/entity/Q241,Cuba
http://www.wikidata.org/entity/Q111386686,Jucaro,Point(-78.85 21.616666666),-78.85,21.616666666,http://www.wikidata.org/entity/Q241,Cuba
http://www.wikidata.org/entity/Q111386628,Manati,Point(-76.816666666 21.366666666),-76.816666666,21.366666666,http://www.wikidata.org/entity/Q241,Cuba
http://www.wikidata.org/entity/Q23805973,Manuel Díaz Marine Terminal,Point(-82.352777777 23.126388888),-82.352777777,23.126388888,http://www.wikidata.org/entity/Q241,Cuba
http://www.wikidata.org/entity/Q23805972,Margarito Iglesias Marine Terminal,Point(-82.347222222 23.130555555),-82.347222222,23.130555555,http://www.wikidata.org/entity/Q241,Cuba
http://www.wikidata.org/entity/Q111386564,Mariel,Point(-82.75 22.983333333),-82.75,22.983333333,http://www.wikidata.org/entity/Q241,Cuba
http://www.wikidata.org/entity/Q111386570,Nicaro,Point(-75.55 20.716666666),-75.55,20.716666666,http://www.wikidata.org/entity/Q241,Cuba
http://www.wikidata.org/entity/Q111386573,Nueva Gerona port,Point(-82.8 21.916666666),-82.8,21.916666666,http://www.wikidata.org/entity/Q241,Cuba
http://www.wikidata.org/entity/Q111386568,Nuevitas Bay,Point(-77.266666666 21.55),-77.266666666,21.55,http://www.wikidata.org/entity/Q241,Cuba
http://www.wikidata.org/entity/Q111386662,Puerto Guantanamo,Point(-75.133333333 19.983333333),-75.133333333,19.983333333,http://www.wikidata.org/entity/Q241,Cuba
http://www.wikidata.org/entity/Q111386660,Puerto Padre,Point(-76.533333333 21.283333333),-76.533333333,21.283333333,http://www.wikidata.org/entity/Q241,Cuba
http://www.wikidata.org/entity/Q111386654,Santiago de Cuba,Point(-75.833333333 20.016666666),-75.833333333,20.016666666,http://www.wikidata.org/entity/Q241,Cuba
http://www.wikidata.org/entity/Q111386687,Tunas de Zaza,Point(-79.55 21.633333333),-79.55,21.633333333,http://www.wikidata.org/entity/Q241,Cuba
http://www.wikidata.org/entity/Q111386443,Willemstad,Point(-68.933333333 12.116666666),-68.933333333,12.116666666,http://www.wikidata.org/entity/Q25279,Curaçao
http://www.wikidata.org/entity/Q111387302,Kyrenia,Point(33.333333333 35.35),33.333333333,35.35,http://www.wikidata.org/entity/Q229,Cyprus
http://www.wikidata.org/entity/Q117182040,Latchi Harbour,Point(32.3948903 35.0418164),32.3948903,35.0418164,http://www.wikidata.org/entity/Q229,Cyprus
http://www.wikidata.org/entity/Q31920816,Limassol,Point(33.016666666 34.65),33.016666666,34.65,http://www.wikidata.org/entity/Q229,Cyprus
http://www.wikidata.org/entity/Q18209752,Port of Famagusta,Point(33.952 35.1395),33.952,35.1395,http://www.wikidata.org/entity/Q229,Cyprus
http://www.wikidata.org/entity/Q18343780,"Port of Gemikonagi, Lefke Cyprus",Point(32.833333 35.133333),32.833333,35.133333,http://www.wikidata.org/entity/Q229,Cyprus
http://www.wikidata.org/entity/Q7231174,Port of Limassol,Point(33.01666667 34.65),33.01666667,34.65,http://www.wikidata.org/entity/Q229,Cyprus
http://www.wikidata.org/entity/Q12048308,Q12048308,Point(15.4306647 50.0358789),15.4306647,50.0358789,http://www.wikidata.org/entity/Q213,Czech Republic
http://www.wikidata.org/entity/Q27623970,Q27623970,Point(14.048516166 50.632681166),14.048516166,50.632681166,http://www.wikidata.org/entity/Q213,Czech Republic
http://www.wikidata.org/entity/Q53677982,Q53677982,Point(14.4441606 49.0485767),14.4441606,49.0485767,http://www.wikidata.org/entity/Q213,Czech Republic
http://www.wikidata.org/entity/Q54519549,Q54519549,Point(14.4540953 49.0125781),14.4540953,49.0125781,http://www.wikidata.org/entity/Q213,Czech Republic
http://www.wikidata.org/entity/Q107596067,Former harbour Šunychl,Point(18.3520019 49.9350497),18.3520019,49.9350497,http://www.wikidata.org/entity/Q213,Czech Republic
http://www.wikidata.org/entity/Q12033338,Libeňský přístav,Point(14.46898056 50.10615556),14.46898056,50.10615556,http://www.wikidata.org/entity/Q213,Czech Republic
http://www.wikidata.org/entity/Q53673459,Petrov Marina,Point(17.2734144 48.8874778),17.2734144,48.8874778,http://www.wikidata.org/entity/Q213,Czech Republic
http://www.wikidata.org/entity/Q53911678,Veselí nad Moravou Marina,Point(17.3723225 48.954120555),17.3723225,48.954120555,http://www.wikidata.org/entity/Q213,Czech Republic
http://www.wikidata.org/entity/Q108587320,port,Point(14.4200367 49.2220333),14.4200367,49.2220333,http://www.wikidata.org/entity/Q213,Czech Republic
http://www.wikidata.org/entity/Q3398451,Banana Harbor,Point(12.4303 -6.0215),12.4303,-6.0215,http://www.wikidata.org/entity/Q974,Democratic Republic of the Congo
http://www.wikidata.org/entity/Q111387561,Boma,Point(13.05 -5.85),13.05,-5.85,http://www.wikidata.org/entity/Q974,Democratic Republic of the Congo
http://www.wikidata.org/entity/Q131577658,Port Ihusi,Point(29.229537042 -1.690354737),29.229537042,-1.690354737,http://www.wikidata.org/entity/Q974,Democratic Republic of the Congo
http://www.wikidata.org/entity/Q3398512,Port of Matadi,Point(13.45 -5.816666666),13.45,-5.816666666,http://www.wikidata.org/entity/Q974,Democratic Republic of the Congo
http://www.wikidata.org/entity/Q105809812,Q105809812,Point(10.3076 56.9908),10.3076,56.9908,http://www.wikidata.org/entity/Q35,Denmark
http://www.wikidata.org/entity/Q12004774,Q12004774,Point(12.5979 55.6992),12.5979,55.6992,http://www.wikidata.org/entity/Q35,Denmark
http://www.wikidata.org/entity/Q128321179,Q128321179,Point(8.7298 56.6813),8.7298,56.6813,http://www.wikidata.org/entity/Q35,Denmark
http://www.wikidata.org/entity/Q129028874,Q129028874,Point(11.99776 55.96348),11.99776,55.96348,http://www.wikidata.org/entity/Q35,Denmark
http://www.wikidata.org/entity/Q129946957,Q129946957,Point(10.597757 55.485815),10.597757,55.485815,http://www.wikidata.org/entity/Q35,Denmark
http://www.wikidata.org/entity/Q131178745,Q131178745,Point(12.600021 55.715063),12.600021,55.715063,http://www.wikidata.org/entity/Q35,Denmark
http://www.wikidata.org/entity/Q132178500,Q132178500,Point(10.812876 55.297961),10.812876,55.297961,http://www.wikidata.org/entity/Q35,Denmark
http://www.wikidata.org/entity/Q20757204,Q20757204,Point(11.2486 55.2055),11.2486,55.2055,http://www.wikidata.org/entity/Q35,Denmark
http://www.wikidata.org/entity/Q120146118,Aarsdale Harbour,Point(15.1456 55.1076),15.1456,55.1076,http://www.wikidata.org/entity/Q35,Denmark
http://www.wikidata.org/entity/Q120146100,Agger Harbour,Point(8.2552 56.7766),8.2552,56.7766,http://www.wikidata.org/entity/Q35,Denmark
http://www.wikidata.org/entity/Q120146098,Anholt Harbour,Point(11.5112 56.7151),11.5112,56.7151,http://www.wikidata.org/entity/Q35,Denmark
http://www.wikidata.org/entity/Q120146099,Assens Harbour,Point(9.8868 55.2693),9.8868,55.2693,http://www.wikidata.org/entity/Q35,Denmark
http://www.wikidata.org/entity/Q120146101,Bagenkop Harbour,Point(10.6728 54.7513),10.6728,54.7513,http://www.wikidata.org/entity/Q35,Denmark
http://www.wikidata.org/entity/Q120146110,Bogense Harbour,Point(10.0799 55.5667),10.0799,55.5667,http://www.wikidata.org/entity/Q35,Denmark
http://www.wikidata.org/entity/Q120146094,Bønnerup Harbour,Point(10.7119 56.5334),10.7119,56.5334,http://www.wikidata.org/entity/Q35,Denmark
http://www.wikidata.org/entity/Q101669156,Christiansø Harbour,Point(15.1857 55.3196),15.1857,55.3196,http://www.wikidata.org/entity/Q35,Denmark
http://www.wikidata.org/entity/Q120146103,Dragør Harbour,Point(12.677 55.5939),12.677,55.5939,http://www.wikidata.org/entity/Q35,Denmark
http://www.wikidata.org/entity/Q120146106,Faaborg Harbour,Point(10.2386 55.0943),10.2386,55.0943,http://www.wikidata.org/entity/Q35,Denmark
http://www.wikidata.org/entity/Q1389101,Fredericia harbour,Point(9.7374 55.5578),9.7374,55.5578,http://www.wikidata.org/entity/Q35,Denmark
http://www.wikidata.org/entity/Q23754069,Frederikshavn Port,Point(10.5464 57.4361),10.5464,57.4361,http://www.wikidata.org/entity/Q35,Denmark
http://www.wikidata.org/entity/Q120146123,Frederikssund Harbour,Point(12.0547 55.8357),12.0547,55.8357,http://www.wikidata.org/entity/Q35,Denmark
http://www.wikidata.org/entity/Q502123,Freeport of Copenhagen,Point(12.5961 55.7058),12.5961,55.7058,http://www.wikidata.org/entity/Q35,Denmark
http://www.wikidata.org/entity/Q23754066,Gedser Port,Point(11.9277 54.5728),11.9277,54.5728,http://www.wikidata.org/entity/Q35,Denmark
http://www.wikidata.org/entity/Q120146083,Gilleleje Harbour,Point(12.3107 56.1269),12.3107,56.1269,http://www.wikidata.org/entity/Q35,Denmark
http://www.wikidata.org/entity/Q23754065,Grenaa Port,Point(10.9232 56.4116),10.9232,56.4116,http://www.wikidata.org/entity/Q35,Denmark
http://www.wikidata.org/entity/Q120146107,Haderslev Harbour,Point(9.5003 55.2486),9.5003,55.2486,http://www.wikidata.org/entity/Q35,Denmark
http://www.wikidata.org/entity/Q12314982,Hadsund Havn,Point(10.113 56.7133),10.113,56.7133,http://www.wikidata.org/entity/Q35,Denmark
http://www.wikidata.org/entity/Q55140316,Hammerhavn,Point(14.75626 55.27786),14.75626,55.27786,http://www.wikidata.org/entity/Q35,Denmark
http://www.wikidata.org/entity/Q120146085,Handermelle Harbour,Point(11.5706 54.6581),11.5706,54.6581,http://www.wikidata.org/entity/Q35,Denmark
http://www.wikidata.org/entity/Q106683641,Hanstholm Harbour,Point(8.5944 57.1208),8.5944,57.1208,http://www.wikidata.org/entity/Q35,Denmark
http://www.wikidata.org/entity/Q120146125,Havnsø Harbour,Point(11.3243 55.7541),11.3243,55.7541,http://www.wikidata.org/entity/Q35,Denmark
http://www.wikidata.org/entity/Q12329154,Helsingør Nordhavn,Point(12.6132 56.0422),12.6132,56.0422,http://www.wikidata.org/entity/Q35,Denmark
http://www.wikidata.org/entity/Q120146084,Hobro Harbour,Point(9.8019 56.6386),9.8019,56.6386,http://www.wikidata.org/entity/Q35,Denmark
http://www.wikidata.org/entity/Q120146116,Holbæk Harbour,Point(11.7177 55.7212),11.7177,55.7212,http://www.wikidata.org/entity/Q35,Denmark
http://www.wikidata.org/entity/Q120146117,Hornbæk Harbour,Point(12.4576 56.0943),12.4576,56.0943,http://www.wikidata.org/entity/Q35,Denmark
http://www.wikidata.org/entity/Q23754054,Hou Port,Point(10.37618 57.0567),10.37618,57.0567,http://www.wikidata.org/entity/Q35,Denmark
http://www.wikidata.org/entity/Q120146105,Hundested Harbour,Point(11.8445 55.965),11.8445,55.965,http://www.wikidata.org/entity/Q35,Denmark
http://www.wikidata.org/entity/Q106681337,Høruphav Harbour,Point(9.8887 54.9067),9.8887,54.9067,http://www.wikidata.org/entity/Q35,Denmark
http://www.wikidata.org/entity/Q12318218,Inderhavnen,Point(12.59168 55.67693),12.59168,55.67693,http://www.wikidata.org/entity/Q35,Denmark
http://www.wikidata.org/entity/Q12321147,Kalundborg Port,Point(11.09 55.674),11.09,55.674,http://www.wikidata.org/entity/Q35,Denmark
http://www.wikidata.org/entity/Q120146096,Kastrup Harbour,Point(12.6563 55.6343),12.6563,55.6343,http://www.wikidata.org/entity/Q35,Denmark
http://www.wikidata.org/entity/Q120146114,Kerteminde Harbour,Point(10.6625 55.4497),10.6625,55.4497,http://www.wikidata.org/entity/Q35,Denmark
http://www.wikidata.org/entity/Q23754061,Koge Port,Point(12.1965 55.4558),12.1965,55.4558,http://www.wikidata.org/entity/Q35,Denmark
http://www.wikidata.org/entity/Q23754060,Kolby Kås Port,Point(10.52998 55.79622),10.52998,55.79622,http://www.wikidata.org/entity/Q35,Denmark
http://www.wikidata.org/entity/Q1458107,Kolding Havn,Point(9.4907 55.4917),9.4907,55.4917,http://www.wikidata.org/entity/Q35,Denmark
http://www.wikidata.org/entity/Q120146093,Korsør Harbour,Point(11.1335 55.3348),11.1335,55.3348,http://www.wikidata.org/entity/Q35,Denmark
http://www.wikidata.org/entity/Q120146120,Lohals Harbour,Point(10.9022 55.1354),10.9022,55.1354,http://www.wikidata.org/entity/Q35,Denmark
http://www.wikidata.org/entity/Q120146097,Marstal Harbour,Point(10.5222 54.8548),10.5222,54.8548,http://www.wikidata.org/entity/Q35,Denmark
http://www.wikidata.org/entity/Q120146119,Mommark Harbour,Point(10.0444 54.9325),10.0444,54.9325,http://www.wikidata.org/entity/Q35,Denmark
http://www.wikidata.org/entity/Q63092375,Naestved Harbour,Point(11.7552 55.2253),11.7552,55.2253,http://www.wikidata.org/entity/Q35,Denmark
http://www.wikidata.org/entity/Q120146128,Nakskov Harbour,Point(11.1314 54.8297),11.1314,54.8297,http://www.wikidata.org/entity/Q35,Denmark
http://www.wikidata.org/entity/Q37925521,Nekselø Harbour,Point(11.29726 55.78172),11.29726,55.78172,http://www.wikidata.org/entity/Q35,Denmark
http://www.wikidata.org/entity/Q2914056,Nivå Havn,Point(12.5267 55.9378),12.5267,55.9378,http://www.wikidata.org/entity/Q35,Denmark
http://www.wikidata.org/entity/Q3374807,Nordhavnen,Point(12.606 55.716),12.606,55.716,http://www.wikidata.org/entity/Q35,Denmark
http://www.wikidata.org/entity/Q120146121,Nyborg Harbour,Point(10.791 55.307),10.791,55.307,http://www.wikidata.org/entity/Q35,Denmark
http://www.wikidata.org/entity/Q21065245,Nykøbing Falster Havn,Point(11.8627 54.768),11.8627,54.768,http://www.wikidata.org/entity/Q35,Denmark
http://www.wikidata.org/entity/Q120146124,Nysted Harbour,Point(11.7292 54.664),11.7292,54.664,http://www.wikidata.org/entity/Q35,Denmark
http://www.wikidata.org/entity/Q12329867,Odense Harbour,Point(10.3797 55.409),10.3797,55.409,http://www.wikidata.org/entity/Q35,Denmark
http://www.wikidata.org/entity/Q12341803,Port of Aalbaek,Point(10.4282 57.5923),10.4282,57.5923,http://www.wikidata.org/entity/Q35,Denmark
http://www.wikidata.org/entity/Q12300263,Port of Aalborg,Point(9.9573 57.0546),9.9573,57.0546,http://www.wikidata.org/entity/Q35,Denmark
http://www.wikidata.org/entity/Q1252907,Port of Copenhagen,Point(12.5817 55.6718),12.5817,55.6718,http://www.wikidata.org/entity/Q35,Denmark
http://www.wikidata.org/entity/Q12310581,Port of Esbjerg,Point(8.44056 55.46149),8.44056,55.46149,http://www.wikidata.org/entity/Q35,Denmark
http://www.wikidata.org/entity/Q101668268,Port of Hasle,Point(14.7029 55.1864),14.7029,55.1864,http://www.wikidata.org/entity/Q35,Denmark
http://www.wikidata.org/entity/Q1604552,Port of Helsingør,Point(12.6168 56.0343),12.6168,56.0343,http://www.wikidata.org/entity/Q35,Denmark
http://www.wikidata.org/entity/Q1620583,Port of Hirtshals,Point(9.9659 57.5938),9.9659,57.5938,http://www.wikidata.org/entity/Q35,Denmark
http://www.wikidata.org/entity/Q1628985,Port of Horsens,Point(9.8649 55.8569),9.8649,55.8569,http://www.wikidata.org/entity/Q35,Denmark
http://www.wikidata.org/entity/Q56146867,Port of Neksø,Point(15.137 55.0632),15.137,55.0632,http://www.wikidata.org/entity/Q35,Denmark
http://www.wikidata.org/entity/Q1439055,Port of Romo,Point(8.5686 55.087),8.5686,55.087,http://www.wikidata.org/entity/Q35,Denmark
http://www.wikidata.org/entity/Q1320787,Port of Skagen,Point(10.58748 57.7177),10.58748,57.7177,http://www.wikidata.org/entity/Q35,Denmark
http://www.wikidata.org/entity/Q120146091,Randers Harbour,Point(10.0521 56.4607),10.0521,56.4607,http://www.wikidata.org/entity/Q35,Denmark
http://www.wikidata.org/entity/Q120146087,Ringkøbing Harbour,Point(8.2393 56.0877),8.2393,56.0877,http://www.wikidata.org/entity/Q35,Denmark
http://www.wikidata.org/entity/Q120146109,Roskilde Harbour,Point(12.0769 55.6511),12.0769,55.6511,http://www.wikidata.org/entity/Q35,Denmark
http://www.wikidata.org/entity/Q106673930,Rudkøbing Harbour,Point(10.708 54.9396),10.708,54.9396,http://www.wikidata.org/entity/Q35,Denmark
http://www.wikidata.org/entity/Q1922980,Rønne Harbour,Point(14.69167 55.09583),14.69167,55.09583,http://www.wikidata.org/entity/Q35,Denmark
http://www.wikidata.org/entity/Q120146086,Sandager Harbour,Point(11.6001 54.6628),11.6001,54.6628,http://www.wikidata.org/entity/Q35,Denmark
http://www.wikidata.org/entity/Q120146095,Silkeborg Harbour,Point(9.5551 56.1698),9.5551,56.1698,http://www.wikidata.org/entity/Q35,Denmark
http://www.wikidata.org/entity/Q106128891,Skælskør Harbour,Point(11.2888 55.2526),11.2888,55.2526,http://www.wikidata.org/entity/Q35,Denmark
http://www.wikidata.org/entity/Q12337423,Strandby Havn,Point(10.5028 57.4931),10.5028,57.4931,http://www.wikidata.org/entity/Q35,Denmark
http://www.wikidata.org/entity/Q120146115,Struer Harbour,Point(8.5965 56.4937),8.5965,56.4937,http://www.wikidata.org/entity/Q35,Denmark
http://www.wikidata.org/entity/Q120146111,Stubbekøbing Harbour,Point(12.0454 54.892),12.0454,54.892,http://www.wikidata.org/entity/Q35,Denmark
http://www.wikidata.org/entity/Q105477871,Svendborg Harbour,Point(10.6162 55.0607),10.6162,55.0607,http://www.wikidata.org/entity/Q35,Denmark
http://www.wikidata.org/entity/Q120146089,Sæby Harbour,Point(10.5336 57.3324),10.5336,57.3324,http://www.wikidata.org/entity/Q35,Denmark
http://www.wikidata.org/entity/Q105426935,Søby Harbour,Point(10.2586 54.9423),10.2586,54.9423,http://www.wikidata.org/entity/Q35,Denmark
http://www.wikidata.org/entity/Q120146090,Sønderborg Harbour,Point(9.7847 54.9094),9.7847,54.9094,http://www.wikidata.org/entity/Q35,Denmark
http://www.wikidata.org/entity/Q120146112,Taarbæk Harbour,Point(12.5957 55.7875),12.5957,55.7875,http://www.wikidata.org/entity/Q35,Denmark
http://www.wikidata.org/entity/Q120146102,Thisted Harbour,Point(8.6975 56.9528),8.6975,56.9528,http://www.wikidata.org/entity/Q35,Denmark
http://www.wikidata.org/entity/Q120146127,Thorsminde Harbour,Point(8.1225 56.3721),8.1225,56.3721,http://www.wikidata.org/entity/Q35,Denmark
http://www.wikidata.org/entity/Q111387059,Thyborøn Harbour,Point(8.2207 56.702),8.2207,56.702,http://www.wikidata.org/entity/Q35,Denmark
http://www.wikidata.org/entity/Q23754099,Tømmergraven,Point(12.560277777 55.659444444),12.560277777,55.659444444,http://www.wikidata.org/entity/Q35,Denmark
http://www.wikidata.org/entity/Q120146088,Vejle Harbour,Point(9.5523 55.7055),9.5523,55.7055,http://www.wikidata.org/entity/Q35,Denmark
http://www.wikidata.org/entity/Q300679,port of Åbenrå,Point(9.428 55.0419),9.428,55.0419,http://www.wikidata.org/entity/Q35,Denmark
http://www.wikidata.org/entity/Q120146129,Årøsund Harbour,Point(9.71 55.2624),9.71,55.2624,http://www.wikidata.org/entity/Q35,Denmark
http://www.wikidata.org/entity/Q120146108,Ærøskøbing Harbour,Point(10.4136 54.8907),10.4136,54.8907,http://www.wikidata.org/entity/Q35,Denmark
http://www.wikidata.org/entity/Q23722613,Port d'Obock,Point(43.3 11.966666666),43.3,11.966666666,http://www.wikidata.org/entity/Q977,Djibouti
http://www.wikidata.org/entity/Q23723685,Port du Héron,Point(43.15 11.616666666),43.15,11.616666666,http://www.wikidata.org/entity/Q977,Djibouti
http://www.wikidata.org/entity/Q7231129,Port of Djibouti,Point(43.1392 11.6053),43.1392,11.6053,http://www.wikidata.org/entity/Q977,Djibouti
http://www.wikidata.org/entity/Q3398478,Port of Doraleh,Point(43.095 11.59),43.095,11.59,http://www.wikidata.org/entity/Q977,Djibouti
http://www.wikidata.org/entity/Q5055418,Cayo Levantado Port,Point(-69.3325 19.20277778),-69.3325,19.20277778,http://www.wikidata.org/entity/Q786,Dominican Republic
http://www.wikidata.org/entity/Q111386451,La Romana,Point(-68.966666666 18.416666666),-68.966666666,18.416666666,http://www.wikidata.org/entity/Q786,Dominican Republic
http://www.wikidata.org/entity/Q111386452,Las Calderas,Point(-70.516666666 18.216666666),-70.516666666,18.216666666,http://www.wikidata.org/entity/Q786,Dominican Republic
http://www.wikidata.org/entity/Q6753434,Manzanillo Port,Point(-71.74305556 19.70694444),-71.74305556,19.70694444,http://www.wikidata.org/entity/Q786,Dominican Republic
http://www.wikidata.org/entity/Q6934803,Multimodal Caucedo Port,Point(-69.62916667 18.42444444),-69.62916667,18.42444444,http://www.wikidata.org/entity/Q786,Dominican Republic
http://www.wikidata.org/entity/Q111386492,Pepillo Salcedo,Point(-71.75 19.7),-71.75,19.7,http://www.wikidata.org/entity/Q786,Dominican Republic
http://www.wikidata.org/entity/Q7231079,Port of Azua,Point(-70.83611111 18.34583333),-70.83611111,18.34583333,http://www.wikidata.org/entity/Q786,Dominican Republic
http://www.wikidata.org/entity/Q7231082,Port of Barahona,Point(-71.08805556 18.21416667),-71.08805556,18.21416667,http://www.wikidata.org/entity/Q786,Dominican Republic
http://www.wikidata.org/entity/Q7231088,Port of Boca Chica,Point(-69.62972222 18.44055556),-69.62972222,18.44055556,http://www.wikidata.org/entity/Q786,Dominican Republic
http://www.wikidata.org/entity/Q7231101,Port of Cabo Rojo,Point(-71.65833333 17.92527778),-71.65833333,17.92527778,http://www.wikidata.org/entity/Q786,Dominican Republic
http://www.wikidata.org/entity/Q7231241,Port of Puerto Plata,Point(-70.7 19.80277778),-70.7,19.80277778,http://www.wikidata.org/entity/Q786,Dominican Republic
http://www.wikidata.org/entity/Q7231257,Port of San Pedro de Macoris,Point(-69.31138889 18.44666667),-69.31138889,18.44666667,http://www.wikidata.org/entity/Q786,Dominican Republic
http://www.wikidata.org/entity/Q7231259,Port of Santo Domingo,Point(-69.87972222 18.47194444),-69.87972222,18.47194444,http://www.wikidata.org/entity/Q786,Dominican Republic
http://www.wikidata.org/entity/Q111386668,Puerto Botado,Point(-69.45 19.2),-69.45,19.2,http://www.wikidata.org/entity/Q786,Dominican Republic
http://www.wikidata.org/entity/Q23775729,Puerto Duarte,Point(-69.444722222 19.198333333),-69.444722222,19.198333333,http://www.wikidata.org/entity/Q786,Dominican Republic
http://www.wikidata.org/entity/Q111386453,Puerto Viejo de Azua,Point(-70.833333333 18.35),-70.833333333,18.35,http://www.wikidata.org/entity/Q786,Dominican Republic
http://www.wikidata.org/entity/Q23773593,Puerto de Haina,Point(-70.016666666 18.416666666),-70.016666666,18.416666666,http://www.wikidata.org/entity/Q786,Dominican Republic
http://www.wikidata.org/entity/Q111386667,Punta Nizao Oil Terminal,Point(-70.2 18.2),-70.2,18.2,http://www.wikidata.org/entity/Q786,Dominican Republic
http://www.wikidata.org/entity/Q111386449,Sanchez,Point(-69.616666666 19.233333333),-69.616666666,19.233333333,http://www.wikidata.org/entity/Q786,Dominican Republic
http://www.wikidata.org/entity/Q111386491,Santa Barbara de Samana,Point(-69.333333333 19.2),-69.333333333,19.2,http://www.wikidata.org/entity/Q786,Dominican Republic
http://www.wikidata.org/entity/Q106959367,Terminal Don Diego,Point(-69.88188 18.47535),-69.88188,18.47535,http://www.wikidata.org/entity/Q786,Dominican Republic
http://www.wikidata.org/entity/Q111387203,Esmeraldas,Point(-79.65 1.0),-79.65,1.0,http://www.wikidata.org/entity/Q736,Ecuador
http://www.wikidata.org/entity/Q111387202,Manta,Point(-80.716666666 -0.95),-80.716666666,-0.95,http://www.wikidata.org/entity/Q736,Ecuador
http://www.wikidata.org/entity/Q23886293,Puerto Balsa,Point(-79.894444444 -2.575),-79.894444444,-2.575,http://www.wikidata.org/entity/Q736,Ecuador
http://www.wikidata.org/entity/Q111387200,Puerto Bolivar,Point(-80.0 -3.266666666),-80.0,-3.266666666,http://www.wikidata.org/entity/Q736,Ecuador
http://www.wikidata.org/entity/Q23880326,Puerto Marítimo de Guayaquil,Point(-79.906666666 -2.279722222),-79.906666666,-2.279722222,http://www.wikidata.org/entity/Q736,Ecuador
http://www.wikidata.org/entity/Q23873147,Puerto Roma,Point(-79.8825 -2.515277777),-79.8825,-2.515277777,http://www.wikidata.org/entity/Q736,Ecuador
http://www.wikidata.org/entity/Q23873973,Puerto San Francisco,Point(-79.861388888 -2.526111111),-79.861388888,-2.526111111,http://www.wikidata.org/entity/Q736,Ecuador
http://www.wikidata.org/entity/Q23886291,Puerto Serrano,Point(-79.869444444 -2.433333333),-79.869444444,-2.433333333,http://www.wikidata.org/entity/Q736,Ecuador
http://www.wikidata.org/entity/Q23886104,Puerto del Horno,Point(-80.091666666 -3.3125),-80.091666666,-3.3125,http://www.wikidata.org/entity/Q736,Ecuador
http://www.wikidata.org/entity/Q113434108,Q113434108,Point(29.670222222 31.054388888),29.670222222,31.054388888,http://www.wikidata.org/entity/Q79,Egypt
http://www.wikidata.org/entity/Q116831245,Q116831245,Point(30.078972222 31.33325),30.078972222,31.33325,http://www.wikidata.org/entity/Q79,Egypt
http://www.wikidata.org/entity/Q108559017,Ain Sokhna port,Point(32.356363888 29.648027777),32.356363888,29.648027777,http://www.wikidata.org/entity/Q79,Egypt
http://www.wikidata.org/entity/Q111386800,Al Qusayr,Point(34.283333333 26.1),34.283333333,26.1,http://www.wikidata.org/entity/Q79,Egypt
http://www.wikidata.org/entity/Q12246904,Al-Adabiya,Point(32.473055555 29.873055555),32.473055555,29.873055555,http://www.wikidata.org/entity/Q79,Egypt
http://www.wikidata.org/entity/Q111386609,Alexandria,Point(29.833333333 31.166666666),29.833333333,31.166666666,http://www.wikidata.org/entity/Q79,Egypt
http://www.wikidata.org/entity/Q1344739,Alexandria Port,Point(29.88227 31.18471),29.88227,31.18471,http://www.wikidata.org/entity/Q79,Egypt
http://www.wikidata.org/entity/Q819050,Berenice Troglodytica,Point(35.489444444 23.943055555),35.489444444,23.943055555,http://www.wikidata.org/entity/Q79,Egypt
http://www.wikidata.org/entity/Q111386801,Bur Safaga,Point(33.95 26.733333333),33.95,26.733333333,http://www.wikidata.org/entity/Q79,Egypt
http://www.wikidata.org/entity/Q111386587,Bur Said,Point(32.3 31.266666666),32.3,31.266666666,http://www.wikidata.org/entity/Q79,Egypt
http://www.wikidata.org/entity/Q3775676,Clysma,Point(32.573972 29.954611),32.573972,29.954611,http://www.wikidata.org/entity/Q79,Egypt
http://www.wikidata.org/entity/Q5212542,Damietta Port,Point(31.7681 31.4669),31.7681,31.4669,http://www.wikidata.org/entity/Q79,Egypt
http://www.wikidata.org/entity/Q111387195,East Zeit Terminal,Point(33.6 27.85),33.6,27.85,http://www.wikidata.org/entity/Q79,Egypt
http://www.wikidata.org/entity/Q111386607,El Maadiya,Point(30.15 31.266666666),30.15,31.266666666,http://www.wikidata.org/entity/Q79,Egypt
http://www.wikidata.org/entity/Q111386586,Hamrawein,Point(34.2 26.25),34.2,26.25,http://www.wikidata.org/entity/Q79,Egypt
http://www.wikidata.org/entity/Q25452272,Marina Taba Heights,Point(34.793583333 29.375777777),34.793583333,29.375777777,http://www.wikidata.org/entity/Q79,Egypt
http://www.wikidata.org/entity/Q111386585,Mersa Matruh,Point(27.233333333 31.35),27.233333333,31.35,http://www.wikidata.org/entity/Q79,Egypt
http://www.wikidata.org/entity/Q23931935,Mīnā' Baranīs,Point(35.466666666 23.916666666),35.466666666,23.916666666,http://www.wikidata.org/entity/Q79,Egypt
http://www.wikidata.org/entity/Q23976225,Mīnā' Qaşr al Muntazah,Point(30.019722222 31.289722222),30.019722222,31.289722222,http://www.wikidata.org/entity/Q79,Egypt
http://www.wikidata.org/entity/Q23973742,Mīnā' Shirkat Abū Za‘bal lil Asmidah wa al Kīmāwiyāt,Point(31.240833333 30.114722222),31.240833333,30.114722222,http://www.wikidata.org/entity/Q79,Egypt
http://www.wikidata.org/entity/Q23976241,Mīnā' Şayd,Point(32.318055555 31.270833333),32.318055555,31.270833333,http://www.wikidata.org/entity/Q79,Egypt
http://www.wikidata.org/entity/Q23954920,Mīnā' ‘Atāqah,Point(32.464444444 29.896388888),32.464444444,29.896388888,http://www.wikidata.org/entity/Q79,Egypt
http://www.wikidata.org/entity/Q23972138,Mīnāh al-Adabīyah,Point(32.465833333 29.888055555),32.465833333,29.888055555,http://www.wikidata.org/entity/Q79,Egypt
http://www.wikidata.org/entity/Q111387147,NUWEIBA EL MUZEIMA,Point(34.65 28.966666666),34.65,28.966666666,http://www.wikidata.org/entity/Q79,Egypt
http://www.wikidata.org/entity/Q111387151,North Ain Sukhna Port,Point(32.366666666 29.65),32.366666666,29.65,http://www.wikidata.org/entity/Q79,Egypt
http://www.wikidata.org/entity/Q12246909,Port of Al Tor,Point(33.612361111 28.234972222),33.612361111,28.234972222,http://www.wikidata.org/entity/Q79,Egypt
http://www.wikidata.org/entity/Q111387138,Ras Badran Oil Terminal,Point(33.166666666 28.95),33.166666666,28.95,http://www.wikidata.org/entity/Q79,Egypt
http://www.wikidata.org/entity/Q111386581,Ras Sudr,Point(32.7 29.583333333),32.7,29.583333333,http://www.wikidata.org/entity/Q79,Egypt
http://www.wikidata.org/entity/Q9350867,Sharm el-Sheich,Point(34.28 27.85),34.28,27.85,http://www.wikidata.org/entity/Q79,Egypt
http://www.wikidata.org/entity/Q111386512,Sidi Kerir,Point(29.616666666 31.1),29.616666666,31.1,http://www.wikidata.org/entity/Q79,Egypt
http://www.wikidata.org/entity/Q111387139,Sokhna Port Gas Tanker Terminal,Point(32.366666666 29.683333333),32.366666666,29.683333333,http://www.wikidata.org/entity/Q79,Egypt
http://www.wikidata.org/entity/Q6349617,Suez Port,Point(32.55 29.95),32.55,29.95,http://www.wikidata.org/entity/Q79,Egypt
http://www.wikidata.org/entity/Q111387340,Zafarana Terminal,Point(32.683333333 29.166666666),32.683333333,29.166666666,http://www.wikidata.org/entity/Q79,Egypt
http://www.wikidata.org/entity/Q111387341,Zeit Bay LPG Terminal,Point(33.566666666 27.8),33.566666666,27.8,http://www.wikidata.org/entity/Q79,Egypt
http://www.wikidata.org/entity/Q111386802,Zeit Bay Terminal,Point(33.6 27.833333333),33.6,27.833333333,http://www.wikidata.org/entity/Q79,Egypt
http://www.wikidata.org/entity/Q111386520,Acajutla Offshore Terminal,Point(-89.866666666 13.583333333),-89.866666666,13.583333333,http://www.wikidata.org/entity/Q792,El Salvador
http://www.wikidata.org/entity/Q24960677,Port of Acajutla,Point(-89.831683333 13.576936111),-89.831683333,13.576936111,http://www.wikidata.org/entity/Q792,El Salvador
http://www.wikidata.org/entity/Q9064566,Puerto La Unión,Point(-87.820984 13.333503),-87.820984,13.333503,http://www.wikidata.org/entity/Q792,El Salvador
http://www.wikidata.org/entity/Q111386529,Ceiba Terminal,Point(9.233333333 1.416666666),9.233333333,1.416666666,http://www.wikidata.org/entity/Q983,Equatorial Guinea
http://www.wikidata.org/entity/Q111386530,Cogo,Point(9.7 1.083333333),9.7,1.083333333,http://www.wikidata.org/entity/Q983,Equatorial Guinea
http://www.wikidata.org/entity/Q111386594,Luba,Point(8.566666666 3.5),8.566666666,3.5,http://www.wikidata.org/entity/Q983,Equatorial Guinea
http://www.wikidata.org/entity/Q111386593,Malabo,Point(8.783333333 3.75),8.783333333,3.75,http://www.wikidata.org/entity/Q983,Equatorial Guinea
http://www.wikidata.org/entity/Q111386592,Punta Europa Terminal,Point(8.716666666 3.783333333),8.716666666,3.783333333,http://www.wikidata.org/entity/Q983,Equatorial Guinea
http://www.wikidata.org/entity/Q111386531,Serpentina Terminal,Point(8.083333333 3.8),8.083333333,3.8,http://www.wikidata.org/entity/Q983,Equatorial Guinea
http://www.wikidata.org/entity/Q111386797,Mitsiwa Harbor,Point(39.466666666 15.616666666),39.466666666,15.616666666,http://www.wikidata.org/entity/Q986,Eritrea
http://www.wikidata.org/entity/Q61394456,Q61394456,Point(24.60451745 59.45050422),24.60451745,59.45050422,http://www.wikidata.org/entity/Q191,Estonia
http://www.wikidata.org/entity/Q15621724,Abruka harbour,Point(22.5275 58.162833333),22.5275,58.162833333,http://www.wikidata.org/entity/Q191,Estonia
http://www.wikidata.org/entity/Q3743981,Bekker Port,Point(24.6675 59.45388889),24.6675,59.45388889,http://www.wikidata.org/entity/Q191,Estonia
http://www.wikidata.org/entity/Q31274635,Eisma harbour,Point(26.302480555 59.568986111),26.302480555,59.568986111,http://www.wikidata.org/entity/Q191,Estonia
http://www.wikidata.org/entity/Q61393881,Haldi harbour,Point(22.447251 58.80707),22.447251,58.80707,http://www.wikidata.org/entity/Q191,Estonia
http://www.wikidata.org/entity/Q42328194,Haven Kakumäe,Point(24.603055555 59.450555555),24.603055555,59.450555555,http://www.wikidata.org/entity/Q191,Estonia
http://www.wikidata.org/entity/Q23889374,Heltermaa harbour,Point(23.05 58.866667),23.05,58.866667,http://www.wikidata.org/entity/Q191,Estonia
http://www.wikidata.org/entity/Q25517820,Hundipea Port,Point(24.718833333 59.46),24.718833333,59.46,http://www.wikidata.org/entity/Q191,Estonia
http://www.wikidata.org/entity/Q12365948,Kaavi harbour,Point(22.201777777 57.98165),22.201777777,57.98165,http://www.wikidata.org/entity/Q191,Estonia
http://www.wikidata.org/entity/Q20933414,Kaberneeme harbour,Point(25.278333 59.52),25.278333,59.52,http://www.wikidata.org/entity/Q191,Estonia
http://www.wikidata.org/entity/Q16409352,Kalana harbour,Point(22.056477777 58.920958333),22.056477777,58.920958333,http://www.wikidata.org/entity/Q191,Estonia
http://www.wikidata.org/entity/Q18624874,Kalasadam,Point(24.750141666 59.446747222),24.750141666,59.446747222,http://www.wikidata.org/entity/Q191,Estonia
http://www.wikidata.org/entity/Q42328198,Kalev Yacht Club harbour,Point(24.82926 59.46642),24.82926,59.46642,http://www.wikidata.org/entity/Q191,Estonia
http://www.wikidata.org/entity/Q15621662,Kallaste harbour,Point(27.167216666 58.668516666),27.167216666,58.668516666,http://www.wikidata.org/entity/Q191,Estonia
http://www.wikidata.org/entity/Q20530997,Karepa harbour,Point(26.422917 59.547222),26.422917,59.547222,http://www.wikidata.org/entity/Q191,Estonia
http://www.wikidata.org/entity/Q20531051,Karlova harbour,Point(26.744536111 58.369427777),26.744536111,58.369427777,http://www.wikidata.org/entity/Q191,Estonia
http://www.wikidata.org/entity/Q12366664,Kaunispe harbour,Point(22.059836111 58.042980555),22.059836111,58.042980555,http://www.wikidata.org/entity/Q191,Estonia
http://www.wikidata.org/entity/Q16410050,Kelnase harbour,Point(25.0121221 59.6371197),25.0121221,59.6371197,http://www.wikidata.org/entity/Q191,Estonia
http://www.wikidata.org/entity/Q106413326,Ketta Harbour,Point(24.663647222 59.455925),24.663647222,59.455925,http://www.wikidata.org/entity/Q191,Estonia
http://www.wikidata.org/entity/Q31277410,Kihnu harbour,Point(24.020780555 58.141302777),24.020780555,58.141302777,http://www.wikidata.org/entity/Q191,Estonia
http://www.wikidata.org/entity/Q12367665,Kuivastu harbour,Point(23.391388888 58.573333333),23.391388888,58.573333333,http://www.wikidata.org/entity/Q191,Estonia
http://www.wikidata.org/entity/Q12367815,Kuressaare harbour,Point(22.47083333 58.24366667),22.47083333,58.24366667,http://www.wikidata.org/entity/Q191,Estonia
http://www.wikidata.org/entity/Q12367833,Kurkse port,Point(24.0222 59.288483333),24.0222,59.288483333,http://www.wikidata.org/entity/Q191,Estonia
http://www.wikidata.org/entity/Q31276195,Kärdla harbour,Point(22.754333 59.010333),22.754333,59.010333,http://www.wikidata.org/entity/Q191,Estonia
http://www.wikidata.org/entity/Q15621674,Kärsa harbour,Point(22.738333333 58.24),22.738333333,58.24,http://www.wikidata.org/entity/Q191,Estonia
http://www.wikidata.org/entity/Q31273843,Käsmu Lighthouse harbour,Point(25.923826 59.604624),25.923826,59.604624,http://www.wikidata.org/entity/Q191,Estonia
http://www.wikidata.org/entity/Q31277408,Kõiguste harbour,Point(22.972191666 58.368997222),22.972191666,58.368997222,http://www.wikidata.org/entity/Q191,Estonia
http://www.wikidata.org/entity/Q16409005,Kõrgessaare harbour,Point(22.464333 58.993),22.464333,58.993,http://www.wikidata.org/entity/Q191,Estonia
http://www.wikidata.org/entity/Q1799324,Laaksaare harbour,Point(27.416667 58.338333),27.416667,58.338333,http://www.wikidata.org/entity/Q191,Estonia
http://www.wikidata.org/entity/Q12368268,Lalli harbour,Point(23.356757 58.624823),23.356757,58.624823,http://www.wikidata.org/entity/Q191,Estonia
http://www.wikidata.org/entity/Q16409959,Leppneeme harbour,Point(24.866111 59.55071),24.866111,59.55071,http://www.wikidata.org/entity/Q191,Estonia
http://www.wikidata.org/entity/Q12368832,Lindi harbour,Point(24.29 58.33),24.29,58.33,http://www.wikidata.org/entity/Q191,Estonia
http://www.wikidata.org/entity/Q12368931,Lohusalu harbour,Point(24.204722222 59.4025),24.204722222,59.4025,http://www.wikidata.org/entity/Q191,Estonia
http://www.wikidata.org/entity/Q15621677,Loksa harbour,Point(25.698833333 59.5835),25.698833333,59.5835,http://www.wikidata.org/entity/Q191,Estonia
http://www.wikidata.org/entity/Q130271631,Luunja river port,Point(26.882618 58.354584),26.882618,58.354584,http://www.wikidata.org/entity/Q191,Estonia
http://www.wikidata.org/entity/Q31277414,Läätsa harbour,Point(22.254427 58.146292),22.254427,58.146292,http://www.wikidata.org/entity/Q191,Estonia
http://www.wikidata.org/entity/Q130371074,Manilaid harbour,Point(24.125297222 58.222002777),24.125297222,58.222002777,http://www.wikidata.org/entity/Q191,Estonia
http://www.wikidata.org/entity/Q18625117,Munalaid harbour,Point(24.117777777 58.229166666),24.117777777,58.229166666,http://www.wikidata.org/entity/Q191,Estonia
http://www.wikidata.org/entity/Q112189912,Mustvee harbour,Point(26.950833333 58.846944444),26.950833333,58.846944444,http://www.wikidata.org/entity/Q191,Estonia
http://www.wikidata.org/entity/Q999776,Muuga Harbour,Point(24.966666666 59.5),24.966666666,59.5,http://www.wikidata.org/entity/Q191,Estonia
http://www.wikidata.org/entity/Q12370755,Mõntu harbour,Point(22.127166666 57.949),22.127166666,57.949,http://www.wikidata.org/entity/Q191,Estonia
http://www.wikidata.org/entity/Q16411920,Mölgi harbour,Point(25.01473 59.61484),25.01473,59.61484,http://www.wikidata.org/entity/Q191,Estonia
http://www.wikidata.org/entity/Q12370843,Naissaar harbour,Point(24.55415 59.556266666),24.55415,59.556266666,http://www.wikidata.org/entity/Q191,Estonia
http://www.wikidata.org/entity/Q31274638,Narva harbour,Point(28.206252777 59.383125),28.206252777,59.383125,http://www.wikidata.org/entity/Q191,Estonia
http://www.wikidata.org/entity/Q91303278,Narva-Jõesuu harbour,Point(28.04544 59.464668),28.04544,59.464668,http://www.wikidata.org/entity/Q191,Estonia
http://www.wikidata.org/entity/Q12370902,Nasva harbour,Point(22.396 58.21333333),22.396,58.21333333,http://www.wikidata.org/entity/Q191,Estonia
http://www.wikidata.org/entity/Q42888515,Neeme port,Point(25.16 59.531667),25.16,59.531667,http://www.wikidata.org/entity/Q191,Estonia
http://www.wikidata.org/entity/Q16412348,Noblessner Port,Point(24.735333333 59.455),24.735333333,59.455,http://www.wikidata.org/entity/Q191,Estonia
http://www.wikidata.org/entity/Q74645139,Nurme harbour,Point(24.786 59.5769),24.786,59.5769,http://www.wikidata.org/entity/Q191,Estonia
http://www.wikidata.org/entity/Q11133776,Old City Harbour,Point(24.766666666 59.444444444),24.766666666,59.444444444,http://www.wikidata.org/entity/Q191,Estonia
http://www.wikidata.org/entity/Q18626726,Old City Marina,Point(24.759208 59.442259),24.759208,59.442259,http://www.wikidata.org/entity/Q191,Estonia
http://www.wikidata.org/entity/Q12371530,Orissaare harbour,Point(23.093702777 58.562397222),23.093702777,58.562397222,http://www.wikidata.org/entity/Q191,Estonia
http://www.wikidata.org/entity/Q16413412,Orjaku harbour,Point(22.770833333 58.7885),22.770833333,58.7885,http://www.wikidata.org/entity/Q191,Estonia
http://www.wikidata.org/entity/Q12371883,Paldiski North Harbour,Point(24.0475 59.349833333),24.0475,59.349833333,http://www.wikidata.org/entity/Q191,Estonia
http://www.wikidata.org/entity/Q12371881,Paldiski South Harbour,Point(24.083333333 59.333333333),24.083333333,59.333333333,http://www.wikidata.org/entity/Q191,Estonia
http://www.wikidata.org/entity/Q17513931,Paljassaare Harbour,Point(24.705658333 59.459044444),24.705658333,59.459044444,http://www.wikidata.org/entity/Q191,Estonia
http://www.wikidata.org/entity/Q25517822,Papissaare harbour,Point(21.985833 58.360278),21.985833,58.360278,http://www.wikidata.org/entity/Q191,Estonia
http://www.wikidata.org/entity/Q12372021,Patareisadam,Point(24.752416666 59.448158333),24.752416666,59.448158333,http://www.wikidata.org/entity/Q191,Estonia
http://www.wikidata.org/entity/Q31271807,Piirissaar harbour,Point(27.511389 58.376389),27.511389,58.376389,http://www.wikidata.org/entity/Q191,Estonia
http://www.wikidata.org/entity/Q31277423,Piirivalvesadam,Point(24.66 59.455),24.66,59.455,http://www.wikidata.org/entity/Q191,Estonia
http://www.wikidata.org/entity/Q12372534,Pirita Harbour,Point(24.821666666 59.468333333),24.821666666,59.468333333,http://www.wikidata.org/entity/Q191,Estonia
